{
"type": "FeatureCollection",
"name": "CitiWatch_Camera_Locations",
"crs": { "type": "name", "properties": { "name": "urn:ogc:def:crs:OGC:1.3:CRS84" } },
"features": [
{ "type": "Feature", "properties": { "OBJECTID": 1, "CAM_NUMBER": "1", "CAM_LOCATION": "Eutaw and Lexington Market", "GlobalID": "{79B000BD-3983-42E9-86D4-CDB499AEEE43}" }, "geometry": { "type": "Point", "coordinates": [ -76.62095022205942, 39.291162119955622, 0.0 ] } },
{ "type": "Feature", "properties": { "OBJECTID": 2, "CAM_NUMBER": "2", "CAM_LOCATION": "Eutaw and Fayette", "GlobalID": "{0B7BAD6A-9679-47E7-81C8-FA81AEC718FF}" }, "geometry": { "type": "Point", "coordinates": [ -76.620874722043041, 39.290326636932861, 0.0 ] } },
{ "type": "Feature", "properties": { "OBJECTID": 3, "CAM_NUMBER": "3", "CAM_LOCATION": "Eutaw and Baltimore", "GlobalID": "{46219FBE-04B8-4046-84A5-1021057D152D}" }, "geometry": { "type": "Point", "coordinates": [ -76.620795539445837, 39.289383267630051, 0.0 ] } },
{ "type": "Feature", "properties": { "OBJECTID": 4, "CAM_NUMBER": "4", "CAM_LOCATION": "Eutaw and Redwood", "GlobalID": "{63094D5A-BA90-4BAC-9A83-C71AD165C613}" }, "geometry": { "type": "Point", "coordinates": [ -76.620979325400285, 39.288594131816524, 0.0 ] } },
{ "type": "Feature", "properties": { "OBJECTID": 5, "CAM_NUMBER": "5", "CAM_LOCATION": "Eutaw and Lombard", "GlobalID": "{D5342535-F339-476A-B5CA-67DA92955AE8}" }, "geometry": { "type": "Point", "coordinates": [ -76.620726659435192, 39.28761791795479, 0.0 ] } },
{ "type": "Feature", "properties": { "OBJECTID": 6, "CAM_NUMBER": "6", "CAM_LOCATION": "Eutaw and Camden", "GlobalID": "{2FB52186-B53A-4270-8968-FF13EA2C9DDC}" }, "geometry": { "type": "Point", "coordinates": [ -76.620879101979938, 39.285291765318703, 0.0 ] } },
{ "type": "Feature", "properties": { "OBJECTID": 7, "CAM_NUMBER": "7", "CAM_LOCATION": "Paca and Pratt", "GlobalID": "{AFAD1984-9A1B-4737-97C9-35E9F22144AB}" }, "geometry": { "type": "Point", "coordinates": [ -76.622195841102851, 39.286358257956628, 0.0 ] } },
{ "type": "Feature", "properties": { "OBJECTID": 8, "CAM_NUMBER": "8", "CAM_LOCATION": "Greene and Lombard", "GlobalID": "{515B063E-49D6-46BD-9FDE-5C2782E5BE9A}" }, "geometry": { "type": "Point", "coordinates": [ -76.623707197163441, 39.287351151579031, 0.0 ] } },
{ "type": "Feature", "properties": { "OBJECTID": 9, "CAM_NUMBER": "9", "CAM_LOCATION": "Greene and Baltimore", "GlobalID": "{1EF229F3-4427-424C-9D4E-5BDFC3AA7DBA}" }, "geometry": { "type": "Point", "coordinates": [ -76.623807200800243, 39.289125994008337, 0.0 ] } },
{ "type": "Feature", "properties": { "OBJECTID": 10, "CAM_NUMBER": "10", "CAM_LOCATION": "Greene and Fayette", "GlobalID": "{2199064E-1EB0-4676-9855-D865EEA2E6BB}" }, "geometry": { "type": "Point", "coordinates": [ -76.623843979714337, 39.290347520598253, 0.0 ] } },
{ "type": "Feature", "properties": { "OBJECTID": 11, "CAM_NUMBER": "11", "CAM_LOCATION": "Greene and Lexington", "GlobalID": "{FC3BBF6D-9798-4F81-B8AE-D6C402EE7347}" }, "geometry": { "type": "Point", "coordinates": [ -76.623866083320365, 39.291421487774322, 0.0 ] } },
{ "type": "Feature", "properties": { "OBJECTID": 12, "CAM_NUMBER": "12", "CAM_LOCATION": "N Paca St and W Fayette St", "GlobalID": "{45365595-9413-4B69-BA51-964D3F910F50}" }, "geometry": { "type": "Point", "coordinates": [ -76.622250690031962, 39.29044066576197, 0.0 ] } },
{ "type": "Feature", "properties": { "OBJECTID": 13, "CAM_NUMBER": "13", "CAM_LOCATION": "S Howard St and W Lombard St", "GlobalID": "{E8D76F70-FFF6-4C02-AD18-B3BEC44DD7C5}" }, "geometry": { "type": "Point", "coordinates": [ -76.619192476450536, 39.287479984381569, 0.0 ] } },
{ "type": "Feature", "properties": { "OBJECTID": 14, "CAM_NUMBER": "14", "CAM_LOCATION": "S Howard St and W Pratt St", "GlobalID": "{6D7CCF9E-81D7-4132-8B91-5BB926CE21B0}" }, "geometry": { "type": "Point", "coordinates": [ -76.619303228046661, 39.286149338540817, 0.0 ] } },
{ "type": "Feature", "properties": { "OBJECTID": 15, "CAM_NUMBER": "15", "CAM_LOCATION": "S Howard St and W Camden St", "GlobalID": "{38933317-E006-4F4D-A778-1A22AFCBFCE1}" }, "geometry": { "type": "Point", "coordinates": [ -76.619042217832799, 39.285388836341497, 0.0 ] } },
{ "type": "Feature", "properties": { "OBJECTID": 16, "CAM_NUMBER": "16", "CAM_LOCATION": "S Hanover and W Pratt St", "GlobalID": "{A9B75E15-2ACD-4D60-81DE-A6E300D82885}" }, "geometry": { "type": "Point", "coordinates": [ -76.616323529522305, 39.286368687029466, 0.0 ] } },
{ "type": "Feature", "properties": { "OBJECTID": 17, "CAM_NUMBER": "17", "CAM_LOCATION": "Hopkins Pl and W Lombard St", "GlobalID": "{6018F2E9-7BE9-48D3-B160-3E762DA52CDE}" }, "geometry": { "type": "Point", "coordinates": [ -76.617855085536178, 39.287728184076059, 0.0 ] } },
{ "type": "Feature", "properties": { "OBJECTID": 18, "CAM_NUMBER": "18", "CAM_LOCATION": "Park Ave and W Baltimore St", "GlobalID": "{B1DD0F7E-E2B8-4B25-BD58-0456C2156498}" }, "geometry": { "type": "Point", "coordinates": [ -76.618124875115484, 39.289499969047014, 0.0 ] } },
{ "type": "Feature", "properties": { "OBJECTID": 19, "CAM_NUMBER": "19", "CAM_LOCATION": "S Howard St and W Baltimore St", "GlobalID": "{CA987CE0-A588-46A7-AB75-E5267DAE9BA2}" }, "geometry": { "type": "Point", "coordinates": [ -76.619528415305254, 39.289303461712755, 0.0 ] } },
{ "type": "Feature", "properties": { "OBJECTID": 20, "CAM_NUMBER": "20", "CAM_LOCATION": "N Howard St and W Fayette St", "GlobalID": "{8A956A54-82FB-43B7-A5B3-4B66BDBC4BAA}" }, "geometry": { "type": "Point", "coordinates": [ -76.619578654115301, 39.290350966956531, 0.0 ] } },
{ "type": "Feature", "properties": { "OBJECTID": 21, "CAM_NUMBER": "21", "CAM_LOCATION": "N Howard St and W Lexington St", "GlobalID": "{9BB1B8FA-3667-4F6B-A73A-609DA59E722E}" }, "geometry": { "type": "Point", "coordinates": [ -76.619665914160066, 39.291622915977705, 0.0 ] } },
{ "type": "Feature", "properties": { "OBJECTID": 22, "CAM_NUMBER": "22", "CAM_LOCATION": "Park Ave and W Lexington St", "GlobalID": "{30DE58D0-B2A3-40AA-8367-CC2875E54BAD}" }, "geometry": { "type": "Point", "coordinates": [ -76.617970321704504, 39.291711661738859, 0.0 ] } },
{ "type": "Feature", "properties": { "OBJECTID": 23, "CAM_NUMBER": "23", "CAM_LOCATION": "N Liberty St and W Lexington St", "GlobalID": "{AE028EF4-AEC4-437B-A74F-796837B73F3C}" }, "geometry": { "type": "Point", "coordinates": [ -76.61728064029387, 39.291540356979439, 0.0 ] } },
{ "type": "Feature", "properties": { "OBJECTID": 24, "CAM_NUMBER": "24", "CAM_LOCATION": "N Liberty St and W Fayette St", "GlobalID": "{0BFF2BF7-14EB-49A9-B1E2-775D3317F503}" }, "geometry": { "type": "Point", "coordinates": [ -76.617801533819005, 39.290422243468015, 0.0 ] } },
{ "type": "Feature", "properties": { "OBJECTID": 25, "CAM_NUMBER": "25", "CAM_LOCATION": "Park Ave and W Fayette St", "GlobalID": "{1D2642A7-3C42-478A-9778-EC76C606CAC6}" }, "geometry": { "type": "Point", "coordinates": [ -76.617862950227931, 39.290584081932558, 0.0 ] } },
{ "type": "Feature", "properties": { "OBJECTID": 26, "CAM_NUMBER": "26", "CAM_LOCATION": "N Liberty St and Clay St", "GlobalID": "{0925A90B-D7D7-407C-A7AC-C69D846E8501}" }, "geometry": { "type": "Point", "coordinates": [ -76.616964802405121, 39.292314636644811, 0.0 ] } },
{ "type": "Feature", "properties": { "OBJECTID": 27, "CAM_NUMBER": "27", "CAM_LOCATION": "Cathedral St and W Saratoga St", "GlobalID": "{864FC413-5E4C-4380-9739-EE2F805F7B1D}" }, "geometry": { "type": "Point", "coordinates": [ -76.61660804878008, 39.29308420502884, 0.0 ] } },
{ "type": "Feature", "properties": { "OBJECTID": 28, "CAM_NUMBER": "28", "CAM_LOCATION": "Cathedral St and W Mulberry St", "GlobalID": "{9CF70B71-BCEC-49CE-A580-F528C8286AC7}" }, "geometry": { "type": "Point", "coordinates": [ -76.61670136489488, 39.294110684083464, 0.0 ] } },
{ "type": "Feature", "properties": { "OBJECTID": 29, "CAM_NUMBER": "29", "CAM_LOCATION": "N Charles St and E Mulberry St", "GlobalID": "{7D4B646A-8CCB-4B55-AD00-7F9282CC0931}" }, "geometry": { "type": "Point", "coordinates": [ -76.61536378923131, 39.294075807440066, 0.0 ] } },
{ "type": "Feature", "properties": { "OBJECTID": 30, "CAM_NUMBER": "30", "CAM_LOCATION": "Cathedral St and W Franklin St", "GlobalID": "{4324832E-3D0C-4D50-839D-0CDAE802CF22}" }, "geometry": { "type": "Point", "coordinates": [ -76.617021030471875, 39.295120083801827, 0.0 ] } },
{ "type": "Feature", "properties": { "OBJECTID": 31, "CAM_NUMBER": "31", "CAM_LOCATION": "Park Ave and W Franklin St", "GlobalID": "{44AAAF4F-0EE7-41C2-A62F-7AD9D470788E}" }, "geometry": { "type": "Point", "coordinates": [ -76.618341801658289, 39.295116518193936, 0.0 ] } },
{ "type": "Feature", "properties": { "OBJECTID": 32, "CAM_NUMBER": "32", "CAM_LOCATION": "Park Ave and W Mulberry St", "GlobalID": "{36D2F1F2-3929-4576-8363-013F7A91EB71}" }, "geometry": { "type": "Point", "coordinates": [ -76.618266610255773, 39.294124141208719, 0.0 ] } },
{ "type": "Feature", "properties": { "OBJECTID": 33, "CAM_NUMBER": "33", "CAM_LOCATION": "Park Ave and W Saratoga St", "GlobalID": "{A84256BA-CCB1-42B0-92D8-CFC4EC840472}" }, "geometry": { "type": "Point", "coordinates": [ -76.617998695913229, 39.29290537558218, 0.0 ] } },
{ "type": "Feature", "properties": { "OBJECTID": 34, "CAM_NUMBER": "34", "CAM_LOCATION": "N Howard St and W Saratoga St", "GlobalID": "{7F9644CE-CB09-46D9-865A-93250376F5AE}" }, "geometry": { "type": "Point", "coordinates": [ -76.619581189723846, 39.292786279606041, 0.0 ] } },
{ "type": "Feature", "properties": { "OBJECTID": 35, "CAM_NUMBER": "35", "CAM_LOCATION": "N Howard St and W Mulberry St", "GlobalID": "{24B9EFFC-3045-435E-B9F7-3EF8BFA247C3}" }, "geometry": { "type": "Point", "coordinates": [ -76.619645796337991, 39.294062412238468, 0.0 ] } },
{ "type": "Feature", "properties": { "OBJECTID": 36, "CAM_NUMBER": "36", "CAM_LOCATION": "N Howard St and W Franklin St", "GlobalID": "{A6E6D523-FCEF-4A8C-8EFF-1E735202C433}" }, "geometry": { "type": "Point", "coordinates": [ -76.619709935602813, 39.295076726529878, 0.0 ] } },
{ "type": "Feature", "properties": { "OBJECTID": 37, "CAM_NUMBER": "37", "CAM_LOCATION": "N Howard St and W Centre St", "GlobalID": "{84A8ECA3-5A2A-4DB4-ADB8-CD9D86CC3FBF}" }, "geometry": { "type": "Point", "coordinates": [ -76.61979653852778, 39.296280954293799, 0.0 ] } },
{ "type": "Feature", "properties": { "OBJECTID": 38, "CAM_NUMBER": "38", "CAM_LOCATION": "N Eutaw St and George St", "GlobalID": "{0A768293-C8E4-4CDD-8DA4-FFEA548D21F6}" }, "geometry": { "type": "Point", "coordinates": [ -76.621254262874075, 39.295844243299932, 0.0 ] } },
{ "type": "Feature", "properties": { "OBJECTID": 39, "CAM_NUMBER": "39", "CAM_LOCATION": "S Paca St and W Baltimore St", "GlobalID": "{2217B13E-06CE-451A-9E2A-43597C736FD7}" }, "geometry": { "type": "Point", "coordinates": [ -76.622381684349392, 39.289357415962918, 0.0 ] } },
{ "type": "Feature", "properties": { "OBJECTID": 40, "CAM_NUMBER": "40", "CAM_LOCATION": "N Eutaw St and W Saratoga", "GlobalID": "{9D36BD1A-1E81-4271-8D50-D5DFA2DAF9CF}" }, "geometry": { "type": "Point", "coordinates": [ -76.621063659998342, 39.292926544834344, 0.0 ] } },
{ "type": "Feature", "properties": { "OBJECTID": 41, "CAM_NUMBER": "41", "CAM_LOCATION": "N Paca St and W Saratoga St", "GlobalID": "{DD56FBDE-E41E-4A43-BED3-5A2635B17DE6}" }, "geometry": { "type": "Point", "coordinates": [ -76.622601812295727, 39.292861086413083, 0.0 ] } },
{ "type": "Feature", "properties": { "OBJECTID": 42, "CAM_NUMBER": "42", "CAM_LOCATION": "N Paca St and W Mulberry St", "GlobalID": "{4362EC7C-066D-4A36-BFCD-F43DB93FF253}" }, "geometry": { "type": "Point", "coordinates": [ -76.622412027538488, 39.293763437056555, 0.0 ] } },
{ "type": "Feature", "properties": { "OBJECTID": 43, "CAM_NUMBER": "43", "CAM_LOCATION": "N Paca St and W Lexington St", "GlobalID": "{559B4DEB-11B5-4D07-8B9F-3F9F316C77E4}" }, "geometry": { "type": "Point", "coordinates": [ -76.622303754948447, 39.291349568664089, 0.0 ] } },
{ "type": "Feature", "properties": { "OBJECTID": 44, "CAM_NUMBER": "44", "CAM_LOCATION": "N Greene St and W Franklin St", "GlobalID": "{147DDD6B-BF55-4766-A15E-51EE2759BC3D}" }, "geometry": { "type": "Point", "coordinates": [ -76.624123503012925, 39.294700009746528, 0.0 ] } },
{ "type": "Feature", "properties": { "OBJECTID": 45, "CAM_NUMBER": "45", "CAM_LOCATION": "N Greene St and W Saratoga St", "GlobalID": "{F865084B-DF26-4C0B-8F99-AB01E1EA6671}" }, "geometry": { "type": "Point", "coordinates": [ -76.623926553191268, 39.292633993476109, 0.0 ] } },
{ "type": "Feature", "properties": { "OBJECTID": 46, "CAM_NUMBER": "46", "CAM_LOCATION": "N Eutaw St and W Franklin St", "GlobalID": "{BAEFEB3D-51F1-4B84-BB09-DDAFB4F50AB5}" }, "geometry": { "type": "Point", "coordinates": [ -76.621395312677791, 39.294949422354073, 0.0 ] } },
{ "type": "Feature", "properties": { "OBJECTID": 47, "CAM_NUMBER": "47", "CAM_LOCATION": "N Eutaw St and Druid Hill Ave", "GlobalID": "{A40559EA-2BCD-4BB8-A69B-CD45B9496CAA}" }, "geometry": { "type": "Point", "coordinates": [ -76.621452282524004, 39.296547134256322, 0.0 ] } },
{ "type": "Feature", "properties": { "OBJECTID": 48, "CAM_NUMBER": "48", "CAM_LOCATION": "N Eutaw St and W Mulberry St", "GlobalID": "{07B361AD-4E7D-431D-9193-19BA18FF27A3}" }, "geometry": { "type": "Point", "coordinates": [ -76.621122820436426, 39.293823995232472, 0.0 ] } },
{ "type": "Feature", "properties": { "OBJECTID": 49, "CAM_NUMBER": "49", "CAM_LOCATION": "N Paca St and George St", "GlobalID": "{90327FCD-76C7-441C-AEBC-23517C767F2E}" }, "geometry": { "type": "Point", "coordinates": [ -76.622721376826021, 39.295669238105276, 0.0 ] } },
{ "type": "Feature", "properties": { "OBJECTID": 50, "CAM_NUMBER": "50", "CAM_LOCATION": "Cathedral St and W Centre St", "GlobalID": "{90765B58-CC6C-402F-AE31-AA8E179D4E97}" }, "geometry": { "type": "Point", "coordinates": [ -76.616840606928207, 39.296360307576848, 0.0 ] } },
{ "type": "Feature", "properties": { "OBJECTID": 52, "CAM_NUMBER": "53", "CAM_LOCATION": "Charles and Baltimore", "GlobalID": "{8FF7A82F-8C56-440C-A2FD-70705CF2A7DC}" }, "geometry": { "type": "Point", "coordinates": [ -76.615321423065069, 39.289458092499451, 0.0 ] } },
{ "type": "Feature", "properties": { "OBJECTID": 53, "CAM_NUMBER": "54", "CAM_LOCATION": "S Charles St and E Lombard St", "GlobalID": "{99F34948-37DD-48EA-B6BF-04F351DE19F6}" }, "geometry": { "type": "Point", "coordinates": [ -76.615145128016167, 39.287657091044075, 0.0 ] } },
{ "type": "Feature", "properties": { "OBJECTID": 54, "CAM_NUMBER": "55", "CAM_LOCATION": "Saint Paul St and E Lexington St", "GlobalID": "{264414E7-F340-4FDD-B180-60C85DF3AB1A}" }, "geometry": { "type": "Point", "coordinates": [ -76.614028576760134, 39.291228424186777, 0.0 ] } },
{ "type": "Feature", "properties": { "OBJECTID": 55, "CAM_NUMBER": "56", "CAM_LOCATION": "Light St and E Redwood St", "GlobalID": "{97BBEA8D-2457-47BA-A049-4E29E73DA521}" }, "geometry": { "type": "Point", "coordinates": [ -76.613613591756462, 39.288952878247905, 0.0 ] } },
{ "type": "Feature", "properties": { "OBJECTID": 56, "CAM_NUMBER": "57", "CAM_LOCATION": "N Calvert St and E Fayette St", "GlobalID": "{9843632C-8014-42C8-80DF-6A987C7440FA}" }, "geometry": { "type": "Point", "coordinates": [ -76.612263989884553, 39.29050730458065, 0.0 ] } },
{ "type": "Feature", "properties": { "OBJECTID": 57, "CAM_NUMBER": "58", "CAM_LOCATION": "S Calvert St and E Redwood St", "GlobalID": "{26A11AAD-B7AC-47E9-A73B-303394D6B374}" }, "geometry": { "type": "Point", "coordinates": [ -76.612319695839972, 39.288833472056524, 0.0 ] } },
{ "type": "Feature", "properties": { "OBJECTID": 58, "CAM_NUMBER": "59", "CAM_LOCATION": "S Calvert St and E Lombard St", "GlobalID": "{8CEFFB2B-0B76-4F26-91E0-4FF6D8E9CAED}" }, "geometry": { "type": "Point", "coordinates": [ -76.612009682223743, 39.287721536684231, 0.0 ] } },
{ "type": "Feature", "properties": { "OBJECTID": 59, "CAM_NUMBER": "60", "CAM_LOCATION": "Guilford Ave and E Lexington St", "GlobalID": "{336E126E-5F6E-46BD-B303-5A82B3F14A0B}" }, "geometry": { "type": "Point", "coordinates": [ -76.610966861436552, 39.291343719986514, 0.0 ] } },
{ "type": "Feature", "properties": { "OBJECTID": 60, "CAM_NUMBER": "61", "CAM_LOCATION": "South St and E Baltimore St", "GlobalID": "{93AF5C9C-72A8-4B82-B1A5-B24785C60D4C}" }, "geometry": { "type": "Point", "coordinates": [ -76.610878821409216, 39.28977459324193, 0.0 ] } },
{ "type": "Feature", "properties": { "OBJECTID": 61, "CAM_NUMBER": "62", "CAM_LOCATION": "South St and Water St", "GlobalID": "{636823AC-97F8-40DE-901E-428ED32FE86D}" }, "geometry": { "type": "Point", "coordinates": [ -76.610783241791367, 39.288325854413792, 0.0 ] } },
{ "type": "Feature", "properties": { "OBJECTID": 62, "CAM_NUMBER": "63", "CAM_LOCATION": "N Holliday St and E Saratoga St", "GlobalID": "{8BF72186-705B-423B-A448-B460477E1695}" }, "geometry": { "type": "Point", "coordinates": [ -76.610494369120801, 39.292532427475322, 0.0 ] } },
{ "type": "Feature", "properties": { "OBJECTID": 63, "CAM_NUMBER": "64", "CAM_LOCATION": "N Holliday St and E Fayette St", "GlobalID": "{95B29C99-23B1-47BC-99F4-B35C29A2A320}" }, "geometry": { "type": "Point", "coordinates": [ -76.610348592663996, 39.290536085132231, 0.0 ] } },
{ "type": "Feature", "properties": { "OBJECTID": 64, "CAM_NUMBER": "65", "CAM_LOCATION": "Commerce St and E Lombard St", "GlobalID": "{9AB59439-9AD6-4269-9A02-0E21F444B01F}" }, "geometry": { "type": "Point", "coordinates": [ -76.610161489233519, 39.287770917422563, 0.0 ] } },
{ "type": "Feature", "properties": { "OBJECTID": 65, "CAM_NUMBER": "66", "CAM_LOCATION": "Commerce St and E Pratt St", "GlobalID": "{F73898A1-AA8A-41BB-974B-CF2576DFC699}" }, "geometry": { "type": "Point", "coordinates": [ -76.609862526230089, 39.286745920729466, 0.0 ] } },
{ "type": "Feature", "properties": { "OBJECTID": 66, "CAM_NUMBER": "67", "CAM_LOCATION": "Custom House Ave", "GlobalID": "{1AFDC52B-CF10-430B-8331-9FE35EF30C7E}" }, "geometry": { "type": "Point", "coordinates": [ -76.609776957788171, 39.289153065233108, 0.0 ] } },
{ "type": "Feature", "properties": { "OBJECTID": 67, "CAM_NUMBER": "68", "CAM_LOCATION": "S Gay St and E Baltimore St", "GlobalID": "{EC9261A4-C3AE-417D-BFBC-87D7DC6B5EFD}" }, "geometry": { "type": "Point", "coordinates": [ -76.609009332434198, 39.289875694503657, 0.0 ] } },
{ "type": "Feature", "properties": { "OBJECTID": 68, "CAM_NUMBER": "69", "CAM_LOCATION": "S Gay St and Water St", "GlobalID": "{42C70F51-9B4A-4329-9E13-37A70F89DAD6}" }, "geometry": { "type": "Point", "coordinates": [ -76.608733684194121, 39.288534616912905, 0.0 ] } },
{ "type": "Feature", "properties": { "OBJECTID": 69, "CAM_NUMBER": "70", "CAM_LOCATION": "E Saratoga St and E Lexington St", "GlobalID": "{F35D698C-FE43-479A-87B5-B24417298E22}" }, "geometry": { "type": "Point", "coordinates": [ -76.607714724127575, 39.291329765454307, 0.0 ] } },
{ "type": "Feature", "properties": { "OBJECTID": 70, "CAM_NUMBER": "71", "CAM_LOCATION": "Market Pl and E Lombard St", "GlobalID": "{0FDE0493-CDF4-4A08-A22F-18C674D013DF}" }, "geometry": { "type": "Point", "coordinates": [ -76.606962910534349, 39.287783640350909, 0.0 ] } },
{ "type": "Feature", "properties": { "OBJECTID": 71, "CAM_NUMBER": "72", "CAM_LOCATION": "W Lexington St between Pearl St & Greene St", "GlobalID": "{8560EA8D-7445-4EA1-8D81-A36ACCC12B1B}" }, "geometry": { "type": "Point", "coordinates": [ -76.624725633653568, 39.291469399827292, 0.0 ] } },
{ "type": "Feature", "properties": { "OBJECTID": 72, "CAM_NUMBER": "73", "CAM_LOCATION": "N Greene St and W Mulberry St", "GlobalID": "{ED9D0472-35C0-4B3D-A835-0882DED1DCFB}" }, "geometry": { "type": "Point", "coordinates": [ -76.623815261402129, 39.293739950246305, 0.0 ] } },
{ "type": "Feature", "properties": { "OBJECTID": 73, "CAM_NUMBER": "74", "CAM_LOCATION": "Druid Hill Ave and Saint Mary St", "GlobalID": "{3D055F30-C7F0-48EE-9968-19ECB31A2A75}" }, "geometry": { "type": "Point", "coordinates": [ -76.622777996326747, 39.297513811304945, 0.0 ] } },
{ "type": "Feature", "properties": { "OBJECTID": 74, "CAM_NUMBER": "75", "CAM_LOCATION": "Pennsylvania Ave and Saint Mary St", "GlobalID": "{3F0A71B6-7B85-439B-8135-8527759C58A5}" }, "geometry": { "type": "Point", "coordinates": [ -76.625113639593039, 39.295875938242006, 0.0 ] } },
{ "type": "Feature", "properties": { "OBJECTID": 75, "CAM_NUMBER": "76", "CAM_LOCATION": "N Eutaw St and W Monument St", "GlobalID": "{6EE706D3-6763-43B1-B570-9C88AC70BB40}" }, "geometry": { "type": "Point", "coordinates": [ -76.621333718057755, 39.297207010560491, 0.0 ] } },
{ "type": "Feature", "properties": { "OBJECTID": 76, "CAM_NUMBER": "77", "CAM_LOCATION": "Saratoga and Charles", "GlobalID": "{19EB83A6-C5A6-4B2E-A569-C3EB4C58A0EF}" }, "geometry": { "type": "Point", "coordinates": [ -76.615272930660524, 39.292232809438616, 0.0 ] } },
{ "type": "Feature", "properties": { "OBJECTID": 77, "CAM_NUMBER": "78", "CAM_LOCATION": "Saint Paul St and Franklin", "GlobalID": "{5052DD71-8163-485A-A16B-21BCF370F010}" }, "geometry": { "type": "Point", "coordinates": [ -76.614245218241038, 39.295195019818166, 0.0 ] } },
{ "type": "Feature", "properties": { "OBJECTID": 78, "CAM_NUMBER": "79", "CAM_LOCATION": "Charles and Fayette", "GlobalID": "{EA98D4A5-2AEB-4FF3-B5C1-3B7075C455F2}" }, "geometry": { "type": "Point", "coordinates": [ -76.615367544406411, 39.29030005888724, 0.0 ] } },
{ "type": "Feature", "properties": { "OBJECTID": 79, "CAM_NUMBER": "201", "CAM_LOCATION": "E Fayette St and N Broadway", "GlobalID": "{89C1840C-E2FF-4C83-A906-3E152611A38C}" }, "geometry": { "type": "Point", "coordinates": [ -76.594188902363257, 39.293890519419904, 0.0 ] } },
{ "type": "Feature", "properties": { "OBJECTID": 80, "CAM_NUMBER": "202", "CAM_LOCATION": "E Fairmount Ave and N Broadway", "GlobalID": "{C851D2B7-3EB0-4250-9263-14891DD8B942}" }, "geometry": { "type": "Point", "coordinates": [ -76.594058323434382, 39.292541974325523, 0.0 ] } },
{ "type": "Feature", "properties": { "OBJECTID": 81, "CAM_NUMBER": "203", "CAM_LOCATION": "E Baltimore St and S Broadway", "GlobalID": "{57B20C37-030A-4240-9846-BE967326DBD1}" }, "geometry": { "type": "Point", "coordinates": [ -76.594000131564812, 39.291475546565032, 0.0 ] } },
{ "type": "Feature", "properties": { "OBJECTID": 82, "CAM_NUMBER": "204", "CAM_LOCATION": "E Baltimore St and S Ann St", "GlobalID": "{4BAE16D6-73F8-49A3-955E-4BFAE70EB9E9}" }, "geometry": { "type": "Point", "coordinates": [ -76.591681743444852, 39.291599648619908, 0.0 ] } },
{ "type": "Feature", "properties": { "OBJECTID": 83, "CAM_NUMBER": "205", "CAM_LOCATION": "E Baltimore St and S Washington St", "GlobalID": "{31675D5D-17DF-44D6-BACE-1F58AEADFF8F}" }, "geometry": { "type": "Point", "coordinates": [ -76.589084348098908, 39.291699708633473, 0.0 ] } },
{ "type": "Feature", "properties": { "OBJECTID": 84, "CAM_NUMBER": "206", "CAM_LOCATION": "E Lombard St and S Broadway", "GlobalID": "{CA347123-D7F0-4FE3-94FA-BF6C11721D6F}" }, "geometry": { "type": "Point", "coordinates": [ -76.593646681533286, 39.290475593330278, 0.0 ] } },
{ "type": "Feature", "properties": { "OBJECTID": 85, "CAM_NUMBER": "207", "CAM_LOCATION": "E Lombard St and S Ann St", "GlobalID": "{993AE56F-8135-4A46-803B-F71718B30E82}" }, "geometry": { "type": "Point", "coordinates": [ -76.5917436690317, 39.290517605001142, 0.0 ] } },
{ "type": "Feature", "properties": { "OBJECTID": 86, "CAM_NUMBER": "208", "CAM_LOCATION": "E Lombard St and S Durham St", "GlobalID": "{B047B174-FF64-4481-ACC9-96CA30157D0D}" }, "geometry": { "type": "Point", "coordinates": [ -76.591028108807507, 39.290539948303518, 0.0 ] } },
{ "type": "Feature", "properties": { "OBJECTID": 87, "CAM_NUMBER": "209", "CAM_LOCATION": "E Lombard St and S Chapel St", "GlobalID": "{B52CBAD8-46DE-40CC-B352-A5638F35F78E}" }, "geometry": { "type": "Point", "coordinates": [ -76.589745354418, 39.290508136685041, 0.0 ] } },
{ "type": "Feature", "properties": { "OBJECTID": 88, "CAM_NUMBER": "210", "CAM_LOCATION": "E Lombard St and S Washington St", "GlobalID": "{35820AA5-9125-4A61-8EAB-57A6FC96F31B}" }, "geometry": { "type": "Point", "coordinates": [ -76.58916684309844, 39.290596538799321, 0.0 ] } },
{ "type": "Feature", "properties": { "OBJECTID": 89, "CAM_NUMBER": "211", "CAM_LOCATION": "E Pratt St and S Broadway", "GlobalID": "{C2670218-3251-4B07-A29A-4B72E0F4BDBC}" }, "geometry": { "type": "Point", "coordinates": [ -76.59352918918573, 39.289278882376514, 0.0 ] } },
{ "type": "Feature", "properties": { "OBJECTID": 90, "CAM_NUMBER": "212", "CAM_LOCATION": "E Pratt St and N Bond St", "GlobalID": "{DC1B324F-A83D-435C-9248-DFFC77316013}" }, "geometry": { "type": "Point", "coordinates": [ -76.595523361492468, 39.289126281087213, 0.0 ] } },
{ "type": "Feature", "properties": { "OBJECTID": 91, "CAM_NUMBER": "213", "CAM_LOCATION": "Gough St and S Broadway", "GlobalID": "{70E99F7A-52E4-41F2-B654-7CC8DEC49FC0}" }, "geometry": { "type": "Point", "coordinates": [ -76.593751108719459, 39.28755999085832, 0.0 ] } },
{ "type": "Feature", "properties": { "OBJECTID": 92, "CAM_NUMBER": "214", "CAM_LOCATION": "Gough St and S Regester St", "GlobalID": "{B0E4D5CF-21C2-45FE-8987-04F65DED83D4}" }, "geometry": { "type": "Point", "coordinates": [ -76.592380595698913, 39.287627323164173, 0.0 ] } },
{ "type": "Feature", "properties": { "OBJECTID": 93, "CAM_NUMBER": "215", "CAM_LOCATION": "Bank St and S Broadway", "GlobalID": "{75B50549-0E62-4449-9F2E-0AC583E60C8F}" }, "geometry": { "type": "Point", "coordinates": [ -76.593392864557103, 39.286666590892601, 0.0 ] } },
{ "type": "Feature", "properties": { "OBJECTID": 94, "CAM_NUMBER": "216", "CAM_LOCATION": "Bank St and S Bond St", "GlobalID": "{1BEE4040-8243-4852-9BF1-E155B69EFD99}" }, "geometry": { "type": "Point", "coordinates": [ -76.595353307675481, 39.286467065072209, 0.0 ] } },
{ "type": "Feature", "properties": { "OBJECTID": 95, "CAM_NUMBER": "217", "CAM_LOCATION": "Bank St and Caroline St", "GlobalID": "{2D9AA5FA-F070-4CF7-B145-CA5CF6C150CC}" }, "geometry": { "type": "Point", "coordinates": [ -76.596736198860597, 39.286421760668354, 0.0 ] } },
{ "type": "Feature", "properties": { "OBJECTID": 96, "CAM_NUMBER": "218", "CAM_LOCATION": "Eastern Ave and S Broadway", "GlobalID": "{CDAF6C49-8CF0-49FA-BFE2-19EADA2B8076}" }, "geometry": { "type": "Point", "coordinates": [ -76.593311928052017, 39.285499775051775, 0.0 ] } },
{ "type": "Feature", "properties": { "OBJECTID": 97, "CAM_NUMBER": "219", "CAM_LOCATION": "Eastern Ave and S Ann St", "GlobalID": "{4860BC7E-F26E-473D-A45E-BE89917A047A}" }, "geometry": { "type": "Point", "coordinates": [ -76.591514810967013, 39.28570033206779, 0.0 ] } },
{ "type": "Feature", "properties": { "OBJECTID": 98, "CAM_NUMBER": "220", "CAM_LOCATION": "Fleet St and S Broadway (West)", "GlobalID": "{478B17C5-45FF-43A5-9636-281CD292AE4F}" }, "geometry": { "type": "Point", "coordinates": [ -76.593646751505901, 39.284603678887585, 0.0 ] } },
{ "type": "Feature", "properties": { "OBJECTID": 99, "CAM_NUMBER": "221", "CAM_LOCATION": "Fleet St and S Broadway St East", "GlobalID": "{381AD92C-AC09-4E1F-8266-EDCA6F7CCB30}" }, "geometry": { "type": "Point", "coordinates": [ -76.593197532505485, 39.284536770128121, 0.0 ] } },
{ "type": "Feature", "properties": { "OBJECTID": 100, "CAM_NUMBER": "222", "CAM_LOCATION": "Fleet St and S Ann St", "GlobalID": "{1483DB7A-AD65-42F0-8D2D-6E22982DB416}" }, "geometry": { "type": "Point", "coordinates": [ -76.591287594466067, 39.284746012565584, 0.0 ] } },
{ "type": "Feature", "properties": { "OBJECTID": 101, "CAM_NUMBER": "223", "CAM_LOCATION": "Fleet St and S Caroline St", "GlobalID": "{1386485F-D31B-408A-A86F-5291D6441D82}" }, "geometry": { "type": "Point", "coordinates": [ -76.596619778954746, 39.284329248809684, 0.0 ] } },
{ "type": "Feature", "properties": { "OBJECTID": 102, "CAM_NUMBER": "224", "CAM_LOCATION": "Fleet St and S Eden St", "GlobalID": "{02457D00-13E1-4199-A77A-7D4ABB53A28A}" }, "geometry": { "type": "Point", "coordinates": [ -76.598129193470655, 39.28431819517192, 0.0 ] } },
{ "type": "Feature", "properties": { "OBJECTID": 103, "CAM_NUMBER": "225", "CAM_LOCATION": "S Broadway and Aliceanna St East", "GlobalID": "{07FD668B-7302-4063-98E5-E6FCF9A4CE59}" }, "geometry": { "type": "Point", "coordinates": [ -76.5932476747831, 39.283602701494914, 0.0 ] } },
{ "type": "Feature", "properties": { "OBJECTID": 104, "CAM_NUMBER": "226", "CAM_LOCATION": "Aliceanna and Broadway West", "GlobalID": "{BB485F07-EACC-489C-9ED8-6A892807AB49}" }, "geometry": { "type": "Point", "coordinates": [ -76.593449068074307, 39.283457661566231, 0.0 ] } },
{ "type": "Feature", "properties": { "OBJECTID": 105, "CAM_NUMBER": "227", "CAM_LOCATION": "Thames St and S Broadway", "GlobalID": "{874D1B48-C50F-4F26-B4EA-B54AD0FDFF36}" }, "geometry": { "type": "Point", "coordinates": [ -76.593362150603141, 39.281735884409272, 0.0 ] } },
{ "type": "Feature", "properties": { "OBJECTID": 106, "CAM_NUMBER": "301", "CAM_LOCATION": "2708 Berea Rd rear", "GlobalID": "{94330E82-3F2D-4100-85B1-7ABB9E6BF86C}" }, "geometry": { "type": "Point", "coordinates": [ -76.633291529821022, 39.250692921391526, 0.0 ] } },
{ "type": "Feature", "properties": { "OBJECTID": 107, "CAM_NUMBER": "302", "CAM_LOCATION": "1312 Shellbanks rear", "GlobalID": "{D2DAF824-226B-49DA-98BB-A9F656B987CB}" }, "geometry": { "type": "Point", "coordinates": [ -76.632212742295991, 39.250949510132187, 0.0 ] } },
{ "type": "Feature", "properties": { "OBJECTID": 108, "CAM_NUMBER": "303", "CAM_LOCATION": "Berea Rd and Slater Rd", "GlobalID": "{2F3A0017-4E76-46FD-8F8A-7CBA5AE3473C}" }, "geometry": { "type": "Point", "coordinates": [ -76.633110935278566, 39.250355435946915, 0.0 ] } },
{ "type": "Feature", "properties": { "OBJECTID": 109, "CAM_NUMBER": "304", "CAM_LOCATION": "2711 Berea Rd rear", "GlobalID": "{0FB96738-D994-4B77-A16C-1FE4E6910357}" }, "geometry": { "type": "Point", "coordinates": [ -76.632717242679576, 39.250267005122915, 0.0 ] } },
{ "type": "Feature", "properties": { "OBJECTID": 110, "CAM_NUMBER": "305", "CAM_LOCATION": "Shellbanks Rd and Blyden Rd", "GlobalID": "{940C226F-A164-48E9-9B9B-7C8121651113}" }, "geometry": { "type": "Point", "coordinates": [ -76.631854387012893, 39.250416181583276, 0.0 ] } },
{ "type": "Feature", "properties": { "OBJECTID": 111, "CAM_NUMBER": "306", "CAM_LOCATION": "1301 Slater Rd rear", "GlobalID": "{0CCE417D-B6AF-4B26-832E-D5275E1BB8F0}" }, "geometry": { "type": "Point", "coordinates": [ -76.632916987239412, 39.249626804892529, 0.0 ] } },
{ "type": "Feature", "properties": { "OBJECTID": 112, "CAM_NUMBER": "307", "CAM_LOCATION": "Bldg 1200 rear", "GlobalID": "{608B5795-D8B9-41AB-9E11-17804F3B18E8}" }, "geometry": { "type": "Point", "coordinates": [ -76.630931644758263, 39.250345015296269, 0.0 ] } },
{ "type": "Feature", "properties": { "OBJECTID": 113, "CAM_NUMBER": "309", "CAM_LOCATION": "Fisk Rd and Slater Rd", "GlobalID": "{34E58D36-3C24-436D-8A5D-5175EC3955A7}" }, "geometry": { "type": "Point", "coordinates": [ -76.631977415821893, 39.249008570817224, 0.0 ] } },
{ "type": "Feature", "properties": { "OBJECTID": 114, "CAM_NUMBER": "308", "CAM_LOCATION": "1201 Slater Rd rear", "GlobalID": "{5141F64C-29EB-4CAB-961B-E3E7B4C1FC56}" }, "geometry": { "type": "Point", "coordinates": [ -76.632198686941052, 39.248737507196665, 0.0 ] } },
{ "type": "Feature", "properties": { "OBJECTID": 115, "CAM_NUMBER": "310", "CAM_LOCATION": "Giles Rd and Shellbanks Rd", "GlobalID": "{DAFB3239-EE3C-457D-8978-3B2FF2C47FB7}" }, "geometry": { "type": "Point", "coordinates": [ -76.630291390944848, 39.249688331167953, 0.0 ] } },
{ "type": "Feature", "properties": { "OBJECTID": 116, "CAM_NUMBER": "311", "CAM_LOCATION": "2701 Giles Rd rear and Shellbanks", "GlobalID": "{536EBCF9-E56A-472B-979E-EC0B792D7335}" }, "geometry": { "type": "Point", "coordinates": [ -76.630037789353054, 39.249415735721385, 0.0 ] } },
{ "type": "Feature", "properties": { "OBJECTID": 117, "CAM_NUMBER": "312", "CAM_LOCATION": "Sethlow Rd and Slater Rd", "GlobalID": "{88082950-F63B-4C78-9129-FC5B1C89248A}" }, "geometry": { "type": "Point", "coordinates": [ -76.630482929777088, 39.248475456888094, 0.0 ] } },
{ "type": "Feature", "properties": { "OBJECTID": 118, "CAM_NUMBER": "313", "CAM_LOCATION": "Spelman Rd and Woodview Rd", "GlobalID": "{80F035E2-AFD8-42AE-B83F-ECE22AFA4D5E}" }, "geometry": { "type": "Point", "coordinates": [ -76.629210393381356, 39.248639436814926, 0.0 ] } },
{ "type": "Feature", "properties": { "OBJECTID": 119, "CAM_NUMBER": "314", "CAM_LOCATION": "Woodview Rd and Round Rd", "GlobalID": "{15045665-D7B8-4098-A892-395DC359920F}" }, "geometry": { "type": "Point", "coordinates": [ -76.628440962572469, 39.248759668542291, 0.0 ] } },
{ "type": "Feature", "properties": { "OBJECTID": 120, "CAM_NUMBER": "315", "CAM_LOCATION": "Community Center rear", "GlobalID": "{AFF75B10-9CAC-4EBE-A9B2-3EAEAAB8D9E9}" }, "geometry": { "type": "Point", "coordinates": [ -76.629737968239525, 39.248169005248698, 0.0 ] } },
{ "type": "Feature", "properties": { "OBJECTID": 121, "CAM_NUMBER": "316", "CAM_LOCATION": "Community Center rear", "GlobalID": "{1CA98838-774A-438A-9730-0232158761E5}" }, "geometry": { "type": "Point", "coordinates": [ -76.63005518712086, 39.247162420218686, 0.0 ] } },
{ "type": "Feature", "properties": { "OBJECTID": 122, "CAM_NUMBER": "317", "CAM_LOCATION": "Spelman Rd and Claflin Ct", "GlobalID": "{06C08079-06B7-4C25-9902-E6392FC09369}" }, "geometry": { "type": "Point", "coordinates": [ -76.628842100707317, 39.247095271799871, 0.0 ] } },
{ "type": "Feature", "properties": { "OBJECTID": 123, "CAM_NUMBER": "318", "CAM_LOCATION": "2822 Round Rd", "GlobalID": "{F9213719-BC17-4578-8076-BEE0C8E554FA}" }, "geometry": { "type": "Point", "coordinates": [ -76.627720979610402, 39.246369987486673, 0.0 ] } },
{ "type": "Feature", "properties": { "OBJECTID": 124, "CAM_NUMBER": "319", "CAM_LOCATION": "Spelman Rd and S Denham Cir", "GlobalID": "{17D620B6-81A5-4E9F-AA43-3F1781B75FAD}" }, "geometry": { "type": "Point", "coordinates": [ -76.6284078338754, 39.245863933939098, 0.0 ] } },
{ "type": "Feature", "properties": { "OBJECTID": 125, "CAM_NUMBER": "320", "CAM_LOCATION": "2810 Denham Cr side", "GlobalID": "{5010D624-6754-4E49-B528-293B50FB9EE6}" }, "geometry": { "type": "Point", "coordinates": [ -76.629101697336651, 39.245425271667294, 0.0 ] } },
{ "type": "Feature", "properties": { "OBJECTID": 126, "CAM_NUMBER": "321", "CAM_LOCATION": "2822 Denham Cr rear", "GlobalID": "{371952F0-8B9A-46FE-8B8C-28070021C586}" }, "geometry": { "type": "Point", "coordinates": [ -76.628774265337469, 39.244492134685842, 0.0 ] } },
{ "type": "Feature", "properties": { "OBJECTID": 127, "CAM_NUMBER": "322", "CAM_LOCATION": "2824 N Denham Cir", "GlobalID": "{F74F9E1B-A875-4B73-A15E-A81D8FB0B424}" }, "geometry": { "type": "Point", "coordinates": [ -76.628536656095534, 39.244608862642089, 0.0 ] } },
{ "type": "Feature", "properties": { "OBJECTID": 128, "CAM_NUMBER": "323", "CAM_LOCATION": "2820 Spelman Rd", "GlobalID": "{00E698F8-3826-41C5-B950-682DA5315C4C}" }, "geometry": { "type": "Point", "coordinates": [ -76.627971681893825, 39.244815684249481, 0.0 ] } },
{ "type": "Feature", "properties": { "OBJECTID": 129, "CAM_NUMBER": "324", "CAM_LOCATION": "Bridgeview Rd and Spelman Rd", "GlobalID": "{EC8F45BD-FD5F-46A3-8FAA-C8140A76B8FC}" }, "geometry": { "type": "Point", "coordinates": [ -76.627307663622062, 39.245111536284853, 0.0 ] } },
{ "type": "Feature", "properties": { "OBJECTID": 130, "CAM_NUMBER": "325", "CAM_LOCATION": "Rear of 2917 S Denham Cir", "GlobalID": "{735C6A05-D7DC-4587-87E6-9F4CA9E6FB11}" }, "geometry": { "type": "Point", "coordinates": [ -76.627780967527613, 39.243894876642436, 0.0 ] } },
{ "type": "Feature", "properties": { "OBJECTID": 131, "CAM_NUMBER": "326", "CAM_LOCATION": "Side of 2901 Denham Cir", "GlobalID": "{FE3C6B05-AC33-41B9-B07E-418E4DC67B35}" }, "geometry": { "type": "Point", "coordinates": [ -76.626484879326654, 39.244305294456517, 0.0 ] } },
{ "type": "Feature", "properties": { "OBJECTID": 132, "CAM_NUMBER": "327", "CAM_LOCATION": "3301 Round Rd", "GlobalID": "{4C5E0806-94C4-48CE-9402-7B82F1FD448A}" }, "geometry": { "type": "Point", "coordinates": [ -76.625902100273422, 39.244919372114957, 0.0 ] } },
{ "type": "Feature", "properties": { "OBJECTID": 133, "CAM_NUMBER": "328", "CAM_LOCATION": "Behind 911 Coppin Ct.", "GlobalID": "{1B5C4A13-5D5C-497D-A588-48A583030CD2}" }, "geometry": { "type": "Point", "coordinates": [ -76.625013057828454, 39.245009750364908, 0.0 ] } },
{ "type": "Feature", "properties": { "OBJECTID": 134, "CAM_NUMBER": "329", "CAM_LOCATION": "Coppin Ct and Bunche Rd", "GlobalID": "{96235B9E-B4D3-44FC-B1DC-185752E0D829}" }, "geometry": { "type": "Point", "coordinates": [ -76.624282857190792, 39.245300229605739, 0.0 ] } },
{ "type": "Feature", "properties": { "OBJECTID": 135, "CAM_NUMBER": "330", "CAM_LOCATION": "Bethune Rd and Bunche Rd", "GlobalID": "{DDCECA76-4A16-4887-A4C1-0229AB72EBFC}" }, "geometry": { "type": "Point", "coordinates": [ -76.623828381406398, 39.245013667453613, 0.0 ] } },
{ "type": "Feature", "properties": { "OBJECTID": 136, "CAM_NUMBER": "331", "CAM_LOCATION": "Rear of 3411 Round Rd", "GlobalID": "{EDF01218-12BE-4224-80A6-A5F7E0598BFB}" }, "geometry": { "type": "Point", "coordinates": [ -76.623787505478404, 39.244134030131782, 0.0 ] } },
{ "type": "Feature", "properties": { "OBJECTID": 137, "CAM_NUMBER": "332", "CAM_LOCATION": "3401 Round Rd", "GlobalID": "{4122EACC-00DA-47BE-84D3-E9740DCDFA70}" }, "geometry": { "type": "Point", "coordinates": [ -76.624584372204765, 39.243955461023603, 0.0 ] } },
{ "type": "Feature", "properties": { "OBJECTID": 138, "CAM_NUMBER": "333", "CAM_LOCATION": "Bethune Rd and Spelman Rd", "GlobalID": "{73FACBCB-33E0-4B83-9F64-42368D33C10A}" }, "geometry": { "type": "Point", "coordinates": [ -76.626126753557969, 39.243573775383069, 0.0 ] } },
{ "type": "Feature", "properties": { "OBJECTID": 139, "CAM_NUMBER": "334", "CAM_LOCATION": "Back Circle 1019 Bethune Rd", "GlobalID": "{C04312E5-8E38-411F-909D-B7EB60F541D5}" }, "geometry": { "type": "Point", "coordinates": [ -76.626783371012849, 39.242710504684752, 0.0 ] } },
{ "type": "Feature", "properties": { "OBJECTID": 140, "CAM_NUMBER": "335", "CAM_LOCATION": "3430 Spelman Rd", "GlobalID": "{0CF42EC0-B175-4DE6-815B-48155032D2BE}" }, "geometry": { "type": "Point", "coordinates": [ -76.625628849082588, 39.242860711183823, 0.0 ] } },
{ "type": "Feature", "properties": { "OBJECTID": 141, "CAM_NUMBER": "336", "CAM_LOCATION": "3456 Spelman Rd", "GlobalID": "{35755788-AC33-4301-9C0F-3A48FF947945}" }, "geometry": { "type": "Point", "coordinates": [ -76.625254099595921, 39.242657722757109, 0.0 ] } },
{ "type": "Feature", "properties": { "OBJECTID": 142, "CAM_NUMBER": "337", "CAM_LOCATION": "3446 Spelman Rd Parking Lot", "GlobalID": "{0E12D472-8644-4E8B-81F5-03E4CF4BE773}" }, "geometry": { "type": "Point", "coordinates": [ -76.625482051078322, 39.24220841536566, 0.0 ] } },
{ "type": "Feature", "properties": { "OBJECTID": 143, "CAM_NUMBER": "338", "CAM_LOCATION": "3474 Spelman Rd", "GlobalID": "{B945FB47-C832-484C-BA05-031339E73F47}" }, "geometry": { "type": "Point", "coordinates": [ -76.624017429873945, 39.242546569537936, 0.0 ] } },
{ "type": "Feature", "properties": { "OBJECTID": 144, "CAM_NUMBER": "339", "CAM_LOCATION": "3486 Spelman Rd", "GlobalID": "{4C6CD9F1-F32E-41CF-960F-A5DC5147E7A7}" }, "geometry": { "type": "Point", "coordinates": [ -76.623996003779851, 39.242037318634289, 0.0 ] } },
{ "type": "Feature", "properties": { "OBJECTID": 145, "CAM_NUMBER": "340", "CAM_LOCATION": "Seagull Ave UMBC rear", "GlobalID": "{C63ED92C-3877-443C-9DEC-357FABE71BF6}" }, "geometry": { "type": "Point", "coordinates": [ -76.62234206961287, 39.242942155443046, 0.0 ] } },
{ "type": "Feature", "properties": { "OBJECTID": 146, "CAM_NUMBER": "341", "CAM_LOCATION": "Seagull Ave", "GlobalID": "{A0414764-5B89-49D6-BB8E-6187637756C6}" }, "geometry": { "type": "Point", "coordinates": [ -76.622835280724431, 39.243323523685874, 0.0 ] } },
{ "type": "Feature", "properties": { "OBJECTID": 147, "CAM_NUMBER": "342", "CAM_LOCATION": "Behind 835 Seagull Ave", "GlobalID": "{5259E2D6-FB48-48C2-8984-3604C14DE9CF}" }, "geometry": { "type": "Point", "coordinates": [ -76.620825712055179, 39.244505947858492, 0.0 ] } },
{ "type": "Feature", "properties": { "OBJECTID": 148, "CAM_NUMBER": "343", "CAM_LOCATION": "835 Seagull Ave", "GlobalID": "{51AC71F0-1869-4E9F-AC39-015C93A4648C}" }, "geometry": { "type": "Point", "coordinates": [ -76.62119992999061, 39.244796726120434, 0.0 ] } },
{ "type": "Feature", "properties": { "OBJECTID": 149, "CAM_NUMBER": "344", "CAM_LOCATION": "Seagull Ave and Bethune Rd", "GlobalID": "{A7A67A2E-E796-468B-BDC3-66D02618FC8E}" }, "geometry": { "type": "Point", "coordinates": [ -76.620862388282518, 39.245202709713645, 0.0 ] } },
{ "type": "Feature", "properties": { "OBJECTID": 150, "CAM_NUMBER": "345", "CAM_LOCATION": "Carver Rd Front of School", "GlobalID": "{ABB07B31-8884-4DCD-8883-1E9C8E45C3A9}" }, "geometry": { "type": "Point", "coordinates": [ -76.624735197405883, 39.246347079208697, 0.0 ] } },
{ "type": "Feature", "properties": { "OBJECTID": 151, "CAM_NUMBER": "346", "CAM_LOCATION": "Carver Rd and Bridgeview Rd", "GlobalID": "{4007EC23-8F24-4DD8-B1B7-7EDBB0257114}" }, "geometry": { "type": "Point", "coordinates": [ -76.625369914928683, 39.246826133986247, 0.0 ] } },
{ "type": "Feature", "properties": { "OBJECTID": 152, "CAM_NUMBER": "347", "CAM_LOCATION": "Rear of 2805 Carver Rd", "GlobalID": "{B4E813E2-D5B8-4904-BED3-B1C591F01BEF}" }, "geometry": { "type": "Point", "coordinates": [ -76.625646096039361, 39.247789931916294, 0.0 ] } },
{ "type": "Feature", "properties": { "OBJECTID": 153, "CAM_NUMBER": "348", "CAM_LOCATION": "2627 Carver Rd", "GlobalID": "{B3130619-6B06-4163-9D68-00D41F342D68}" }, "geometry": { "type": "Point", "coordinates": [ -76.62624502789852, 39.247803326740964, 0.0 ] } },
{ "type": "Feature", "properties": { "OBJECTID": 154, "CAM_NUMBER": "349", "CAM_LOCATION": "2609 Carver Rd", "GlobalID": "{F576B095-DB30-427B-93F3-8E169E4D86ED}" }, "geometry": { "type": "Point", "coordinates": [ -76.625832741941096, 39.248606129771275, 0.0 ] } },
{ "type": "Feature", "properties": { "OBJECTID": 155, "CAM_NUMBER": "350", "CAM_LOCATION": "2615 Carver Rd circle", "GlobalID": "{636F0C0B-E101-4734-B9EE-5EAACE10A5AE}" }, "geometry": { "type": "Point", "coordinates": [ -76.625397896829526, 39.248436842196234, 0.0 ] } },
{ "type": "Feature", "properties": { "OBJECTID": 156, "CAM_NUMBER": "351", "CAM_LOCATION": "Carver Rd Front of School", "GlobalID": "{7F1EB937-135F-42AE-8091-05A366F2F7E7}" }, "geometry": { "type": "Point", "coordinates": [ -76.62358664128422, 39.246128599938636, 0.0 ] } },
{ "type": "Feature", "properties": { "OBJECTID": 157, "CAM_NUMBER": "352", "CAM_LOCATION": "Maint Backyard 1", "GlobalID": "{DB3EE6E3-280D-47AE-9A26-213771166E43}" }, "geometry": { "type": "Point", "coordinates": [ -76.630864437782094, 39.248259749656818, 0.0 ] } },
{ "type": "Feature", "properties": { "OBJECTID": 158, "CAM_NUMBER": "353", "CAM_LOCATION": "Maint Backyard 2", "GlobalID": "{9721843D-734A-4CFC-AC0D-01FB45B214DB}" }, "geometry": { "type": "Point", "coordinates": [ -76.630624815066966, 39.248005175086078, 0.0 ] } },
{ "type": "Feature", "properties": { "OBJECTID": 159, "CAM_NUMBER": "354", "CAM_LOCATION": "Maint. Garage Doors", "GlobalID": "{5B32EEA5-8881-4631-A9D7-8385A3C9C317}" }, "geometry": { "type": "Point", "coordinates": [ -76.629712706587483, 39.248489185543228, 0.0 ] } },
{ "type": "Feature", "properties": { "OBJECTID": 160, "CAM_NUMBER": "355", "CAM_LOCATION": "Back of Comm. Ctr 1", "GlobalID": "{3D45E20F-8699-48A5-A02C-44B92EC61ACA}" }, "geometry": { "type": "Point", "coordinates": [ -76.631041096534517, 39.247979112308137, 0.0 ] } },
{ "type": "Feature", "properties": { "OBJECTID": 161, "CAM_NUMBER": "356", "CAM_LOCATION": "Community Center 2 rear", "GlobalID": "{8F9971CF-BAA3-4442-A22D-AACC0B4D9EE2}" }, "geometry": { "type": "Point", "coordinates": [ -76.629663009894074, 39.248639033206025, 0.0 ] } },
{ "type": "Feature", "properties": { "OBJECTID": 162, "CAM_NUMBER": "401", "CAM_LOCATION": "Eastern Ave and S Macon St", "GlobalID": "{7AF1B549-32D7-4EB7-9143-042C3173D259}" }, "geometry": { "type": "Point", "coordinates": [ -76.557242506598101, 39.287055207193319, 0.0 ] } },
{ "type": "Feature", "properties": { "OBJECTID": 163, "CAM_NUMBER": "402", "CAM_LOCATION": "Eastern Ave and Oldham St", "GlobalID": "{18F6FC3D-9474-4A6A-89D2-395A8C004BD0}" }, "geometry": { "type": "Point", "coordinates": [ -76.555685589352692, 39.287115336727879, 0.0 ] } },
{ "type": "Feature", "properties": { "OBJECTID": 164, "CAM_NUMBER": "403", "CAM_LOCATION": "Eastern Ave and S Lehigh St", "GlobalID": "{18EE61E4-D9CC-404F-B1E8-E375FAA803D3}" }, "geometry": { "type": "Point", "coordinates": [ -76.558184085847302, 39.287034610019766, 0.0 ] } },
{ "type": "Feature", "properties": { "OBJECTID": 165, "CAM_NUMBER": "404", "CAM_LOCATION": "Eastern Ave and S Newkirk St", "GlobalID": "{1675C238-9611-4446-BD27-FDCDC3442C94}" }, "geometry": { "type": "Point", "coordinates": [ -76.55647326026434, 39.286978141870279, 0.0 ] } },
{ "type": "Feature", "properties": { "OBJECTID": 166, "CAM_NUMBER": "405", "CAM_LOCATION": "Eastern Ave and S Ponca St", "GlobalID": "{1273B90B-4574-4C83-8587-1FB5929E01D6}" }, "geometry": { "type": "Point", "coordinates": [ -76.554820405549492, 39.287221534562732, 0.0 ] } },
{ "type": "Feature", "properties": { "OBJECTID": 167, "CAM_NUMBER": "501", "CAM_LOCATION": "Guilford Ave and E 28th St", "GlobalID": "{4DFF317A-3FF2-462F-BB9E-296F067BADED}" }, "geometry": { "type": "Point", "coordinates": [ -76.613192060068016, 39.322123362312624, 0.0 ] } },
{ "type": "Feature", "properties": { "OBJECTID": 168, "CAM_NUMBER": "502", "CAM_LOCATION": "Greenmount Ave and E 28th St", "GlobalID": "{00E6DD1A-577E-4553-92A7-599EC7F47BE6}" }, "geometry": { "type": "Point", "coordinates": [ -76.609406464400067, 39.322167377335262, 0.0 ] } },
{ "type": "Feature", "properties": { "OBJECTID": 169, "CAM_NUMBER": "503", "CAM_LOCATION": "Greenmount Ave and E 27th St", "GlobalID": "{B329C167-942D-44FC-AA30-EAD9AA7CB086}" }, "geometry": { "type": "Point", "coordinates": [ -76.609441009315873, 39.320963095979344, 0.0 ] } },
{ "type": "Feature", "properties": { "OBJECTID": 170, "CAM_NUMBER": "504", "CAM_LOCATION": "Barclay St and E 27th St", "GlobalID": "{CB21D6D1-E00C-4E61-81E7-8031B3026D5F}" }, "geometry": { "type": "Point", "coordinates": [ -76.611169606538027, 39.320947212181217, 0.0 ] } },
{ "type": "Feature", "properties": { "OBJECTID": 171, "CAM_NUMBER": "505", "CAM_LOCATION": "Barclay St and Whitridge Ave", "GlobalID": "{E7198A26-CD55-429F-BF65-ED4799356C08}" }, "geometry": { "type": "Point", "coordinates": [ -76.611165209275455, 39.321573133681888, 0.0 ] } },
{ "type": "Feature", "properties": { "OBJECTID": 172, "CAM_NUMBER": "506", "CAM_LOCATION": "Greenmount Ave and E Lorraine Ave", "GlobalID": "{79926969-F163-4512-9E75-EABA70E933E7}" }, "geometry": { "type": "Point", "coordinates": [ -76.609427803339088, 39.320015627508099, 0.0 ] } },
{ "type": "Feature", "properties": { "OBJECTID": 173, "CAM_NUMBER": "507", "CAM_LOCATION": "Guilford Ave and E 26th St", "GlobalID": "{70E3EF77-C883-4CAA-90BD-D8E5332247D8}" }, "geometry": { "type": "Point", "coordinates": [ -76.613006517973957, 39.319472777330724, 0.0 ] } },
{ "type": "Feature", "properties": { "OBJECTID": 174, "CAM_NUMBER": "508", "CAM_LOCATION": "Falls St Alley and E 25th St", "GlobalID": "{34145837-412D-4DCC-9D4E-0EFEA0532446}" }, "geometry": { "type": "Point", "coordinates": [ -76.612122493649949, 39.318094247415814, 0.0 ] } },
{ "type": "Feature", "properties": { "OBJECTID": 175, "CAM_NUMBER": "509", "CAM_LOCATION": "Greenmount Ave and E 25th St", "GlobalID": "{10CCF7F6-A821-459D-A829-0D79410728B7}" }, "geometry": { "type": "Point", "coordinates": [ -76.60955181567769, 39.318191269041009, 0.0 ] } },
{ "type": "Feature", "properties": { "OBJECTID": 176, "CAM_NUMBER": "510", "CAM_LOCATION": "Boone St and E 24th St", "GlobalID": "{ADAACB5C-2738-4FE1-A270-86FE3C8761CF}" }, "geometry": { "type": "Point", "coordinates": [ -76.608641366505978, 39.316702504549781, 0.0 ] } },
{ "type": "Feature", "properties": { "OBJECTID": 177, "CAM_NUMBER": "511", "CAM_LOCATION": "Cokesbury Ave and E 23rd St", "GlobalID": "{4B75493F-EE49-4ADA-8F23-3C8F57523897}" }, "geometry": { "type": "Point", "coordinates": [ -76.607403049624565, 39.316037472685551, 0.0 ] } },
{ "type": "Feature", "properties": { "OBJECTID": 178, "CAM_NUMBER": "512", "CAM_LOCATION": "Brentwood Ave and E 24th St", "GlobalID": "{4F379FF5-7474-4061-9582-CEB55A94A2FE}" }, "geometry": { "type": "Point", "coordinates": [ -76.610417304689008, 39.316245390093087, 0.0 ] } },
{ "type": "Feature", "properties": { "OBJECTID": 179, "CAM_NUMBER": "513", "CAM_LOCATION": "Greenmount Ave and E 23rd St", "GlobalID": "{00D2894C-4258-4CB1-8842-DDC55C58A985}" }, "geometry": { "type": "Point", "coordinates": [ -76.609552592146954, 39.315507044447031, 0.0 ] } },
{ "type": "Feature", "properties": { "OBJECTID": 180, "CAM_NUMBER": "514", "CAM_LOCATION": "Guilford Ave and E 23rd St", "GlobalID": "{5909D30E-9CB0-49E1-B790-B0FC0F464EA7}" }, "geometry": { "type": "Point", "coordinates": [ -76.612767165461733, 39.315397121003286, 0.0 ] } },
{ "type": "Feature", "properties": { "OBJECTID": 181, "CAM_NUMBER": "515", "CAM_LOCATION": "E 23rd St and Boone St", "GlobalID": "{7930326B-2EF1-438F-8536-8454CB18F7C2}" }, "geometry": { "type": "Point", "coordinates": [ -76.608168129874088, 39.315429900690489, 0.0 ] } },
{ "type": "Feature", "properties": { "OBJECTID": 182, "CAM_NUMBER": "516", "CAM_LOCATION": "Greenmount Ave and E 22nd St", "GlobalID": "{F0016E77-7563-4F27-98BF-FC1C7FC4EE69}" }, "geometry": { "type": "Point", "coordinates": [ -76.609555132985449, 39.314464109892732, 0.0 ] } },
{ "type": "Feature", "properties": { "OBJECTID": 183, "CAM_NUMBER": "517", "CAM_LOCATION": "Homewood Ave and E 22nd St", "GlobalID": "{720B85C6-3900-47BC-8399-260DE9AB43FF}" }, "geometry": { "type": "Point", "coordinates": [ -76.607238070581275, 39.314663692800906, 0.0 ] } },
{ "type": "Feature", "properties": { "OBJECTID": 184, "CAM_NUMBER": "518", "CAM_LOCATION": "Barclay St and 21st 1/2 St", "GlobalID": "{015E6139-D8A9-4B07-B95B-20B7C6E0C132}" }, "geometry": { "type": "Point", "coordinates": [ -76.611165765617628, 39.313995440983938, 0.0 ] } },
{ "type": "Feature", "properties": { "OBJECTID": 185, "CAM_NUMBER": "519", "CAM_LOCATION": "Guilford Ave and E 21st St", "GlobalID": "{8D080C4A-4501-4C38-85B6-866618B93CA9}" }, "geometry": { "type": "Point", "coordinates": [ -76.612515184145195, 39.313443815906403, 0.0 ] } },
{ "type": "Feature", "properties": { "OBJECTID": 186, "CAM_NUMBER": "520", "CAM_LOCATION": "Boone St and E 21st St", "GlobalID": "{9EBE9EEA-0F85-472B-B81C-562C779F4DF9}" }, "geometry": { "type": "Point", "coordinates": [ -76.608352949848822, 39.313611939862888, 0.0 ] } },
{ "type": "Feature", "properties": { "OBJECTID": 187, "CAM_NUMBER": "521", "CAM_LOCATION": "Greenmount Ave and Worsley St", "GlobalID": "{95A2ABE4-C6C1-497E-9EB4-D2B61AF30537}" }, "geometry": { "type": "Point", "coordinates": [ -76.609539780418402, 39.312795135558694, 0.0 ] } },
{ "type": "Feature", "properties": { "OBJECTID": 188, "CAM_NUMBER": "522", "CAM_LOCATION": "Barclay St and E 20th St", "GlobalID": "{A66AF0A3-0CC7-408C-83A7-F8F75240444F}" }, "geometry": { "type": "Point", "coordinates": [ -76.610949304973119, 39.31241318959885, 0.0 ] } },
{ "type": "Feature", "properties": { "OBJECTID": 189, "CAM_NUMBER": "523", "CAM_LOCATION": "Barclay St and Heaver St", "GlobalID": "{54822F84-15CF-4BB2-BCB7-F6C48363D047}" }, "geometry": { "type": "Point", "coordinates": [ -76.611026294124486, 39.312006536794698, 0.0 ] } },
{ "type": "Feature", "properties": { "OBJECTID": 190, "CAM_NUMBER": "524", "CAM_LOCATION": "Greenmount Ave and E North Ave", "GlobalID": "{B3644502-79D1-487A-8341-0898E3A6978D}" }, "geometry": { "type": "Point", "coordinates": [ -76.609587402101582, 39.311267628655997, 0.0 ] } },
{ "type": "Feature", "properties": { "OBJECTID": 191, "CAM_NUMBER": "525", "CAM_LOCATION": "E North Ave and Guilford Ave", "GlobalID": "{6140C2DA-CBCF-4E13-A902-4A7FC6B083E9}" }, "geometry": { "type": "Point", "coordinates": [ -76.61171614143187, 39.311389771078929, 0.0 ] } },
{ "type": "Feature", "properties": { "OBJECTID": 192, "CAM_NUMBER": "526", "CAM_LOCATION": "N Calvert St and McAllister St", "GlobalID": "{E34575A9-2E07-494E-B11E-FA00F211C816}" }, "geometry": { "type": "Point", "coordinates": [ -76.6137921949407, 39.310668309096258, 0.0 ] } },
{ "type": "Feature", "properties": { "OBJECTID": 193, "CAM_NUMBER": "527", "CAM_LOCATION": "Guilford Ave and E Lafayette Ave", "GlobalID": "{BE72C734-B041-4E6E-8CE8-F59D65F7CCF2}" }, "geometry": { "type": "Point", "coordinates": [ -76.612282867208521, 39.309932305253945, 0.0 ] } },
{ "type": "Feature", "properties": { "OBJECTID": 194, "CAM_NUMBER": "528", "CAM_LOCATION": "Barclay St and E Lafayette Ave", "GlobalID": "{C8F9D730-34DD-420F-963A-840955A091FD}" }, "geometry": { "type": "Point", "coordinates": [ -76.610807433310214, 39.309979734757334, 0.0 ] } },
{ "type": "Feature", "properties": { "OBJECTID": 195, "CAM_NUMBER": "529", "CAM_LOCATION": "Barclay St and Pitman Pl", "GlobalID": "{0D38FCAC-4E78-4936-B832-3EABB7E6F1E3}" }, "geometry": { "type": "Point", "coordinates": [ -76.610803662507564, 39.308454332131944, 0.0 ] } },
{ "type": "Feature", "properties": { "OBJECTID": 196, "CAM_NUMBER": "530", "CAM_LOCATION": "Greenmount Ave and E Preston St", "GlobalID": "{836E2EDC-74DE-4C71-9F90-6AB1451542DB}" }, "geometry": { "type": "Point", "coordinates": [ -76.608088501236168, 39.304763172370023, 0.0 ] } },
{ "type": "Feature", "properties": { "OBJECTID": 197, "CAM_NUMBER": "531", "CAM_LOCATION": "Greenmount Ave and E Biddle St", "GlobalID": "{DC675D79-279B-469E-8642-8CAEA3143551}" }, "geometry": { "type": "Point", "coordinates": [ -76.607945345952317, 39.303712517048027, 0.0 ] } },
{ "type": "Feature", "properties": { "OBJECTID": 198, "CAM_NUMBER": "532", "CAM_LOCATION": "Greenmount Ave and E Chase St", "GlobalID": "{C8F7C703-D609-475C-A860-AD1C68C0DCA6}" }, "geometry": { "type": "Point", "coordinates": [ -76.607655803690093, 39.302654397024554, 0.0 ] } },
{ "type": "Feature", "properties": { "OBJECTID": 199, "CAM_NUMBER": "533", "CAM_LOCATION": "Greenmount Ave and E Eager St", "GlobalID": "{3284995F-7844-4489-8B35-9F5149DC01EB}" }, "geometry": { "type": "Point", "coordinates": [ -76.607321458739619, 39.301410925067316, 0.0 ] } },
{ "type": "Feature", "properties": { "OBJECTID": 200, "CAM_NUMBER": "534", "CAM_LOCATION": "Greenmount Ave and E 29th St", "GlobalID": "{BB772416-BFEB-462E-BEF7-B182BE878DC8}" }, "geometry": { "type": "Point", "coordinates": [ -76.609499169808842, 39.32337425100156, 0.0 ] } },
{ "type": "Feature", "properties": { "OBJECTID": 201, "CAM_NUMBER": "535", "CAM_LOCATION": "Greenmount Ave and E 30th St", "GlobalID": "{47C4C14D-E7A1-45A7-822D-6574DF8E54CC}" }, "geometry": { "type": "Point", "coordinates": [ -76.60947890877901, 39.324704090479599, 0.0 ] } },
{ "type": "Feature", "properties": { "OBJECTID": 202, "CAM_NUMBER": "536", "CAM_LOCATION": "Greenmount Ave and E 31st St", "GlobalID": "{2025DCB7-ACD9-4B16-9C0B-2A38F57D2947}" }, "geometry": { "type": "Point", "coordinates": [ -76.609469228883214, 39.326011561099349, 0.0 ] } },
{ "type": "Feature", "properties": { "OBJECTID": 203, "CAM_NUMBER": "537", "CAM_LOCATION": "Greenmount Ave and E 32nd St", "GlobalID": "{B99C00C9-9EA9-4B68-A9A0-1A8AB4F062D7}" }, "geometry": { "type": "Point", "coordinates": [ -76.609519559064395, 39.327147608821583, 0.0 ] } },
{ "type": "Feature", "properties": { "OBJECTID": 204, "CAM_NUMBER": "538", "CAM_LOCATION": "Greenmount Ave and E 33rd St", "GlobalID": "{495E9DE2-ADDE-434F-AC46-4050F4BBB641}" }, "geometry": { "type": "Point", "coordinates": [ -76.609331490755238, 39.328319837087442, 0.0 ] } },
{ "type": "Feature", "properties": { "OBJECTID": 205, "CAM_NUMBER": "601", "CAM_LOCATION": "E Monument St and N Chester St", "GlobalID": "{429A45AA-4797-46F4-9858-4408EA3BD095}" }, "geometry": { "type": "Point", "coordinates": [ -76.587878042086814, 39.298603225826042, 0.0 ] } },
{ "type": "Feature", "properties": { "OBJECTID": 206, "CAM_NUMBER": "602", "CAM_LOCATION": "McElderry St and N Duncan St", "GlobalID": "{A961439F-1F67-454A-B6A0-EF17BF4B4C05}" }, "geometry": { "type": "Point", "coordinates": [ -76.587176693637815, 39.297583554258864, 0.0 ] } },
{ "type": "Feature", "properties": { "OBJECTID": 207, "CAM_NUMBER": "603", "CAM_LOCATION": "E Monument St and Collington", "GlobalID": "{8628DDA4-22CE-459C-8A45-B66ABFC4E57A}" }, "geometry": { "type": "Point", "coordinates": [ -76.586629992551721, 39.298743771778327, 0.0 ] } },
{ "type": "Feature", "properties": { "OBJECTID": 208, "CAM_NUMBER": "604", "CAM_LOCATION": "E Madison St and N Mederia St", "GlobalID": "{64DC21DB-6715-4E26-A810-B03B04B95087}" }, "geometry": { "type": "Point", "coordinates": [ -76.585977013570584, 39.29972272067468, 0.0 ] } },
{ "type": "Feature", "properties": { "OBJECTID": 209, "CAM_NUMBER": "605", "CAM_LOCATION": "E Monument St and N Patterson Park Ave", "GlobalID": "{3A2C726F-0057-42EB-9D47-4F180BA075A4}" }, "geometry": { "type": "Point", "coordinates": [ -76.585023984107892, 39.298709835565106, 0.0 ] } },
{ "type": "Feature", "properties": { "OBJECTID": 210, "CAM_NUMBER": "606", "CAM_LOCATION": "McElderry St and N Bradford St", "GlobalID": "{5305352C-A22C-4464-81B2-F7CCB8D7A407}" }, "geometry": { "type": "Point", "coordinates": [ -76.584348935279422, 39.297688486118858, 0.0 ] } },
{ "type": "Feature", "properties": { "OBJECTID": 211, "CAM_NUMBER": "607", "CAM_LOCATION": "E Monument St and N Montford Ave", "GlobalID": "{76CA5B25-5D2D-4E4D-BF96-99FFBCC32CFE}" }, "geometry": { "type": "Point", "coordinates": [ -76.583631710757984, 39.29884264314385, 0.0 ] } },
{ "type": "Feature", "properties": { "OBJECTID": 212, "CAM_NUMBER": "608", "CAM_LOCATION": "E Madison St and N Port", "GlobalID": "{5C4A956D-ADF8-47DD-BA42-A6EFA2E4CA5E}" }, "geometry": { "type": "Point", "coordinates": [ -76.583088312006495, 39.299829304665352, 0.0 ] } },
{ "type": "Feature", "properties": { "OBJECTID": 213, "CAM_NUMBER": "609", "CAM_LOCATION": "E Monument St and N Milton Ave", "GlobalID": "{3E1D2E2A-F412-40A2-B4A5-957960004335}" }, "geometry": { "type": "Point", "coordinates": [ -76.582214076490118, 39.298890262848616, 0.0 ] } },
{ "type": "Feature", "properties": { "OBJECTID": 214, "CAM_NUMBER": "610", "CAM_LOCATION": "McElderry St and N Rose St", "GlobalID": "{E08AB6D2-56D6-445F-BD59-301EBC609576}" }, "geometry": { "type": "Point", "coordinates": [ -76.581469949681477, 39.297802385846204, 0.0 ] } },
{ "type": "Feature", "properties": { "OBJECTID": 215, "CAM_NUMBER": "611", "CAM_LOCATION": "E Monument St and N Luzerne Ave", "GlobalID": "{57D2D589-2889-45FA-9F1E-48E9323ABD49}" }, "geometry": { "type": "Point", "coordinates": [ -76.58081600236244, 39.298945361101758, 0.0 ] } },
{ "type": "Feature", "properties": { "OBJECTID": 216, "CAM_NUMBER": "612", "CAM_LOCATION": "E Madison St and N Glover St", "GlobalID": "{A4A59396-D9EB-4C15-9317-DF04D2421328}" }, "geometry": { "type": "Point", "coordinates": [ -76.580212051980553, 39.300017082654392, 0.0 ] } },
{ "type": "Feature", "properties": { "OBJECTID": 217, "CAM_NUMBER": "613", "CAM_LOCATION": "E Monument St and N Lakewood Ave", "GlobalID": "{21496636-0DC3-4014-B615-59ED228BB37B}" }, "geometry": { "type": "Point", "coordinates": [ -76.579367721869076, 39.298940621916067, 0.0 ] } },
{ "type": "Feature", "properties": { "OBJECTID": 218, "CAM_NUMBER": "614", "CAM_LOCATION": "McElderry St and N Belnord Ave", "GlobalID": "{4FDCB8D0-0A1A-4565-8C04-214718ED1A0A}" }, "geometry": { "type": "Point", "coordinates": [ -76.578653980602766, 39.297910474431959, 0.0 ] } },
{ "type": "Feature", "properties": { "OBJECTID": 219, "CAM_NUMBER": "615", "CAM_LOCATION": "E Monument St and N Kenwood Ave", "GlobalID": "{5660950B-C62B-4F5D-B863-B910ED748799}" }, "geometry": { "type": "Point", "coordinates": [ -76.578140893212208, 39.298989019558711, 0.0 ] } },
{ "type": "Feature", "properties": { "OBJECTID": 220, "CAM_NUMBER": "616", "CAM_LOCATION": "E Madison St and N Streeper St", "GlobalID": "{BECD5AD7-3DE5-453B-B642-0BE0530D6330}" }, "geometry": { "type": "Point", "coordinates": [ -76.577376143552939, 39.300122506061079, 0.0 ] } },
{ "type": "Feature", "properties": { "OBJECTID": 221, "CAM_NUMBER": "617", "CAM_LOCATION": "McElderry St and N Linwood Ave", "GlobalID": "{24C942E9-A9A8-4F71-8FB6-8793092C3777}" }, "geometry": { "type": "Point", "coordinates": [ -76.576509494277801, 39.297920819984675, 0.0 ] } },
{ "type": "Feature", "properties": { "OBJECTID": 222, "CAM_NUMBER": "618", "CAM_LOCATION": "E Monument St and N Curley St", "GlobalID": "{15F3448B-0C4B-4EF5-8DEB-C7552DBF2D9B}" }, "geometry": { "type": "Point", "coordinates": [ -76.575984871031778, 39.299072926995684, 0.0 ] } },
{ "type": "Feature", "properties": { "OBJECTID": 223, "CAM_NUMBER": "619", "CAM_LOCATION": "McElderry St and N Potomac St", "GlobalID": "{2E6D2F05-D995-455C-83CC-D1381FD2CCE4}" }, "geometry": { "type": "Point", "coordinates": [ -76.575088265199511, 39.298048977634274, 0.0 ] } },
{ "type": "Feature", "properties": { "OBJECTID": 224, "CAM_NUMBER": "620", "CAM_LOCATION": "E Monument St and Decker", "GlobalID": "{63F566A3-FDD2-4E8F-A51D-3B80EEFD529C}" }, "geometry": { "type": "Point", "coordinates": [ -76.574455376179444, 39.299134910103383, 0.0 ] } },
{ "type": "Feature", "properties": { "OBJECTID": 225, "CAM_NUMBER": "621", "CAM_LOCATION": "E Madison St and N Ellwood Ave", "GlobalID": "{51A15D4D-CF6E-4715-B454-CC14F32EFCB9}" }, "geometry": { "type": "Point", "coordinates": [ -76.5738338012181, 39.30026873004892, 0.0 ] } },
{ "type": "Feature", "properties": { "OBJECTID": 226, "CAM_NUMBER": "622", "CAM_LOCATION": "E Monument St and N Robinson St", "GlobalID": "{5337C8BF-4C5B-49F5-B03E-7DF78A6D0AD5}" }, "geometry": { "type": "Point", "coordinates": [ -76.573149406793036, 39.299187495298355, 0.0 ] } },
{ "type": "Feature", "properties": { "OBJECTID": 227, "CAM_NUMBER": "623", "CAM_LOCATION": "E Madison St and N Curley St", "GlobalID": "{6FD98E62-3908-4726-82E4-AFEE21257DAA}" }, "geometry": { "type": "Point", "coordinates": [ -76.575956336001894, 39.300118838877871, 0.0 ] } },
{ "type": "Feature", "properties": { "OBJECTID": 228, "CAM_NUMBER": "624", "CAM_LOCATION": "McElderry St and N Robinson St", "GlobalID": "{B296DCB6-8937-495B-AEEE-6C20EF6DC82A}" }, "geometry": { "type": "Point", "coordinates": [ -76.573051406494713, 39.298070545770138, 0.0 ] } },
{ "type": "Feature", "properties": { "OBJECTID": 229, "CAM_NUMBER": "625", "CAM_LOCATION": "Milton St and E Biddle St", "GlobalID": "{D2DCDEFC-98ED-448F-A41C-DF2248E417DA}" }, "geometry": { "type": "Point", "coordinates": [ -76.582735486498294, 39.304643383504796, 0.0 ] } },
{ "type": "Feature", "properties": { "OBJECTID": 230, "CAM_NUMBER": "626", "CAM_LOCATION": "Montford St and Ashland Ave", "GlobalID": "{C3A1D64F-A6F8-46E1-9A08-8237ED37B1A0}" }, "geometry": { "type": "Point", "coordinates": [ -76.583924465715725, 39.300991197481288, 0.0 ] } },
{ "type": "Feature", "properties": { "OBJECTID": 231, "CAM_NUMBER": "627", "CAM_LOCATION": "N Collington St and E Jefferson St", "GlobalID": "{E3714F2E-79DC-450A-A63D-A8182A9FA670}" }, "geometry": { "type": "Point", "coordinates": [ -76.586420472436032, 39.296616769441066, 0.0 ] } },
{ "type": "Feature", "properties": { "OBJECTID": 232, "CAM_NUMBER": "628", "CAM_LOCATION": "E Jefferson St and N Glover St", "GlobalID": "{D0E7D747-0B20-41B5-9880-47D4EE38C7E9}" }, "geometry": { "type": "Point", "coordinates": [ -76.579959096933209, 39.296872750625795, 0.0 ] } },
{ "type": "Feature", "properties": { "OBJECTID": 233, "CAM_NUMBER": "703", "CAM_LOCATION": "W North Ave and Thomas Ave", "GlobalID": "{0AB4A83C-6A2A-4119-8E74-EA41C54AEADD}" }, "geometry": { "type": "Point", "coordinates": [ -76.658073303515692, 39.30935790796012, 0.0 ] } },
{ "type": "Feature", "properties": { "OBJECTID": 234, "CAM_NUMBER": "704", "CAM_LOCATION": "N Warwick Ave and Westwood Ave", "GlobalID": "{3698AEDF-A904-449F-AA7C-9E8FF4907942}" }, "geometry": { "type": "Point", "coordinates": [ -76.657167482005477, 39.308421217168814, 0.0 ] } },
{ "type": "Feature", "properties": { "OBJECTID": 235, "CAM_NUMBER": "705", "CAM_LOCATION": "Moreland Ave and Westwood Ave", "GlobalID": "{32D4B89E-D999-44E6-8C15-51FD5E2D2214}" }, "geometry": { "type": "Point", "coordinates": [ -76.655971043481415, 39.3085488944917, 0.0 ] } },
{ "type": "Feature", "properties": { "OBJECTID": 236, "CAM_NUMBER": "706", "CAM_LOCATION": "W North Ave and Moreland Ave", "GlobalID": "{75268731-C0E1-4422-A3C9-B13AD8723B0D}" }, "geometry": { "type": "Point", "coordinates": [ -76.65586882859246, 39.309441516580577, 0.0 ] } },
{ "type": "Feature", "properties": { "OBJECTID": 237, "CAM_NUMBER": "707", "CAM_LOCATION": "N Bentalou St and Westwood Ave", "GlobalID": "{E34ABD57-1A66-4A96-AA91-37CB756E492F}" }, "geometry": { "type": "Point", "coordinates": [ -76.653962748194701, 39.308621264143824, 0.0 ] } },
{ "type": "Feature", "properties": { "OBJECTID": 238, "CAM_NUMBER": "708", "CAM_LOCATION": "N Smallwood St and Westwood Ave", "GlobalID": "{A0695333-9761-4699-948D-C873AF8AA8D9}" }, "geometry": { "type": "Point", "coordinates": [ -76.65269185203006, 39.308582222333499, 0.0 ] } },
{ "type": "Feature", "properties": { "OBJECTID": 239, "CAM_NUMBER": "709", "CAM_LOCATION": "W North Ave and N Smallwood St", "GlobalID": "{DA7C7CAA-A6CC-43A9-8376-531EC5523B27}" }, "geometry": { "type": "Point", "coordinates": [ -76.652818198236162, 39.309680949308529, 0.0 ] } },
{ "type": "Feature", "properties": { "OBJECTID": 240, "CAM_NUMBER": "710", "CAM_LOCATION": "N Smallwood St and Ridgehill Ave", "GlobalID": "{07DFA99A-ACDE-4BBD-BDCC-5A9185209A77}" }, "geometry": { "type": "Point", "coordinates": [ -76.652751047943923, 39.311221281994641, 0.0 ] } },
{ "type": "Feature", "properties": { "OBJECTID": 241, "CAM_NUMBER": "711", "CAM_LOCATION": "N Pulaski St and Westwood Ave", "GlobalID": "{F08DC1E1-C8FC-429F-A9DA-B7C08D563625}" }, "geometry": { "type": "Point", "coordinates": [ -76.651181262854195, 39.308722750363629, 0.0 ] } },
{ "type": "Feature", "properties": { "OBJECTID": 242, "CAM_NUMBER": "712", "CAM_LOCATION": "W North Ave and N Pulaski St", "GlobalID": "{D5BF2621-DFF8-4EA9-8AC9-5CB3B940A78E}" }, "geometry": { "type": "Point", "coordinates": [ -76.651371544913957, 39.309592609795089, 0.0 ] } },
{ "type": "Feature", "properties": { "OBJECTID": 243, "CAM_NUMBER": "713", "CAM_LOCATION": "N Pulaski St and Herbert St", "GlobalID": "{F3D74F6A-ABE5-4E5A-B40C-444DDC1E4AFB}" }, "geometry": { "type": "Point", "coordinates": [ -76.651304247705127, 39.310293827652984, 0.0 ] } },
{ "type": "Feature", "properties": { "OBJECTID": 244, "CAM_NUMBER": "714", "CAM_LOCATION": "N Pulaski St and Walbrook Ave", "GlobalID": "{C7620379-1CE1-43C2-9085-468E8AF29C84}" }, "geometry": { "type": "Point", "coordinates": [ -76.651447862141822, 39.310788015083624, 0.0 ] } },
{ "type": "Feature", "properties": { "OBJECTID": 245, "CAM_NUMBER": "715", "CAM_LOCATION": "W North Ave and N Payson St", "GlobalID": "{E87DED6A-22F8-4960-B430-D41F2DE0A49F}" }, "geometry": { "type": "Point", "coordinates": [ -76.65000918046826, 39.309778427171416, 0.0 ] } },
{ "type": "Feature", "properties": { "OBJECTID": 246, "CAM_NUMBER": "716", "CAM_LOCATION": "N Payson St and Herbert St", "GlobalID": "{2152CE65-DB21-4ACF-84E2-8A89352A39FB}" }, "geometry": { "type": "Point", "coordinates": [ -76.64990113676717, 39.310306931328242, 0.0 ] } },
{ "type": "Feature", "properties": { "OBJECTID": 247, "CAM_NUMBER": "717", "CAM_LOCATION": "N Payson St and Walbrook Ave", "GlobalID": "{C52E09CB-E647-4443-BEB7-8DA2A817E045}" }, "geometry": { "type": "Point", "coordinates": [ -76.649911881044304, 39.310792821526228, 0.0 ] } },
{ "type": "Feature", "properties": { "OBJECTID": 248, "CAM_NUMBER": "718", "CAM_LOCATION": "N Payson St and Ridgehill Ave", "GlobalID": "{6955B254-BD5F-4B96-BAEF-7ECF312DC901}" }, "geometry": { "type": "Point", "coordinates": [ -76.649965079509855, 39.311383796560207, 0.0 ] } },
{ "type": "Feature", "properties": { "OBJECTID": 249, "CAM_NUMBER": "719", "CAM_LOCATION": "Appleton St and Westwood Ave", "GlobalID": "{9D34B9C5-9378-4949-9E7D-D84D288B60BB}" }, "geometry": { "type": "Point", "coordinates": [ -76.648912352050843, 39.308803757362902, 0.0 ] } },
{ "type": "Feature", "properties": { "OBJECTID": 250, "CAM_NUMBER": "720", "CAM_LOCATION": "N Monroe St and Westwood Ave", "GlobalID": "{436FCCBB-2C72-441C-AC36-0F8F1ABCF0A2}" }, "geometry": { "type": "Point", "coordinates": [ -76.648016297039334, 39.308834658660018, 0.0 ] } },
{ "type": "Feature", "properties": { "OBJECTID": 251, "CAM_NUMBER": "721", "CAM_LOCATION": "W North Ave and N Monroe St", "GlobalID": "{336E3550-A33D-43D1-ABC5-63BF4D89FBF7}" }, "geometry": { "type": "Point", "coordinates": [ -76.6480876483147, 39.309876406580777, 0.0 ] } },
{ "type": "Feature", "properties": { "OBJECTID": 252, "CAM_NUMBER": "722", "CAM_LOCATION": "N Monroe St and Walbrook Ave", "GlobalID": "{BFD8067C-9B59-498E-AF5B-B567DFF80049}" }, "geometry": { "type": "Point", "coordinates": [ -76.648183220273751, 39.310833321639869, 0.0 ] } },
{ "type": "Feature", "properties": { "OBJECTID": 253, "CAM_NUMBER": "723", "CAM_LOCATION": "N Fulton Ave and Westwood Ave", "GlobalID": "{8EF69F9D-66E6-489A-B37E-4ED94C8440DE}" }, "geometry": { "type": "Point", "coordinates": [ -76.646267162203003, 39.308917738751866, 0.0 ] } },
{ "type": "Feature", "properties": { "OBJECTID": 254, "CAM_NUMBER": "724", "CAM_LOCATION": "W North Ave and N Fulton Ave", "GlobalID": "{6FD60B3E-6899-492D-895F-5E8BE6AB6C21}" }, "geometry": { "type": "Point", "coordinates": [ -76.646273993423108, 39.309975996260491, 0.0 ] } },
{ "type": "Feature", "properties": { "OBJECTID": 255, "CAM_NUMBER": "725", "CAM_LOCATION": "N Fulton Ave and Walbrook Ave", "GlobalID": "{CE893403-6D85-4D0F-AE81-C395E755D529}" }, "geometry": { "type": "Point", "coordinates": [ -76.64659616341676, 39.310882418224452, 0.0 ] } },
{ "type": "Feature", "properties": { "OBJECTID": 256, "CAM_NUMBER": "726", "CAM_LOCATION": "N Mount St and Westwood Ave", "GlobalID": "{0EC64531-F892-44FB-AB9C-840B70E263B5}" }, "geometry": { "type": "Point", "coordinates": [ -76.645010450718232, 39.308949809820582, 0.0 ] } },
{ "type": "Feature", "properties": { "OBJECTID": 257, "CAM_NUMBER": "727", "CAM_LOCATION": "W North Ave and N Carey St", "GlobalID": "{F1AFDFE6-6D6B-459C-B3C9-0B3F540E5F1D}" }, "geometry": { "type": "Point", "coordinates": [ -76.643737470983211, 39.31007744995653, 0.0 ] } },
{ "type": "Feature", "properties": { "OBJECTID": 258, "CAM_NUMBER": "728", "CAM_LOCATION": "W North Ave and Pennsylvania Ave", "GlobalID": "{7873AFAB-3BF5-4BBC-A350-4216562E6064}" }, "geometry": { "type": "Point", "coordinates": [ -76.642488574180035, 39.310005201520468, 0.0 ] } },
{ "type": "Feature", "properties": { "OBJECTID": 259, "CAM_NUMBER": "729", "CAM_LOCATION": "Cumberland St and N Calhoun St", "GlobalID": "{334925A3-7BA3-4AA1-9428-5F895A5912D8}" }, "geometry": { "type": "Point", "coordinates": [ -76.64337437783351, 39.307925019482319, 0.0 ] } },
{ "type": "Feature", "properties": { "OBJECTID": 260, "CAM_NUMBER": "730", "CAM_LOCATION": "Cumberland St and Pennsylvania Ave", "GlobalID": "{817B1D99-2A78-43FE-8A12-74E6B20A736A}" }, "geometry": { "type": "Point", "coordinates": [ -76.641642289038046, 39.309273260892326, 0.0 ] } },
{ "type": "Feature", "properties": { "OBJECTID": 261, "CAM_NUMBER": "731", "CAM_LOCATION": "W North Ave and Division St", "GlobalID": "{EFE4D844-F345-4FB8-A992-0EAA2CDC98AF}" }, "geometry": { "type": "Point", "coordinates": [ -76.640320379995742, 39.310221731501201, 0.0 ] } },
{ "type": "Feature", "properties": { "OBJECTID": 262, "CAM_NUMBER": "732", "CAM_LOCATION": "Whitelock St and Woodbrook Ave", "GlobalID": "{F5E0A75F-B5C4-4AAD-8610-4F5E9E73237D}" }, "geometry": { "type": "Point", "coordinates": [ -76.641236659237322, 39.310528900732152, 0.0 ] } },
{ "type": "Feature", "properties": { "OBJECTID": 263, "CAM_NUMBER": "733", "CAM_LOCATION": "Etting St and Whitelock St", "GlobalID": "{B91248E3-DEED-4160-B909-3AAD2495AC28}" }, "geometry": { "type": "Point", "coordinates": [ -76.640629531122258, 39.310847696754855, 0.0 ] } },
{ "type": "Feature", "properties": { "OBJECTID": 264, "CAM_NUMBER": "734", "CAM_LOCATION": "Whitelock St and Francis St", "GlobalID": "{35BD94CE-CDB0-442C-A696-0EA53A2625A9}" }, "geometry": { "type": "Point", "coordinates": [ -76.640190796248945, 39.311175544487668, 0.0 ] } },
{ "type": "Feature", "properties": { "OBJECTID": 265, "CAM_NUMBER": "735", "CAM_LOCATION": "Druid Hill Ave and Whitelock St", "GlobalID": "{FBD14F5B-648B-4900-B8BA-3E77B981A2CB}" }, "geometry": { "type": "Point", "coordinates": [ -76.639502438095363, 39.311588129968868, 0.0 ] } },
{ "type": "Feature", "properties": { "OBJECTID": 266, "CAM_NUMBER": "737", "CAM_LOCATION": "W North and Bentalou St", "GlobalID": "{76A05EDA-21BA-445A-B15B-A9293EE3C163}" }, "geometry": { "type": "Point", "coordinates": [ -76.654012660751064, 39.309494025966515, 0.0 ] } },
{ "type": "Feature", "properties": { "OBJECTID": 267, "CAM_NUMBER": "736", "CAM_LOCATION": "W North Ave and McCulloh St", "GlobalID": "{9EB18035-C096-48CB-BAE5-3620A8CFF3AC}" }, "geometry": { "type": "Point", "coordinates": [ -76.637010089067573, 39.31024499770264, 0.0 ] } },
{ "type": "Feature", "properties": { "OBJECTID": 268, "CAM_NUMBER": "801", "CAM_LOCATION": "Reisterstown Rd and Keyworth Ave", "GlobalID": "{D011F68E-7AED-4616-B3E2-DF25EE6616D2}" }, "geometry": { "type": "Point", "coordinates": [ -76.663016191252183, 39.332653422325407, 0.0 ] } },
{ "type": "Feature", "properties": { "OBJECTID": 269, "CAM_NUMBER": "802", "CAM_LOCATION": "Reisterstown Rd and Shirley Ave", "GlobalID": "{89F25D11-E5C0-447D-856D-7728F2957DBF}" }, "geometry": { "type": "Point", "coordinates": [ -76.66402208286253, 39.333930286734933, 0.0 ] } },
{ "type": "Feature", "properties": { "OBJECTID": 270, "CAM_NUMBER": "803", "CAM_LOCATION": "Towonda Ave and Oswego Ave", "GlobalID": "{F22ADE0D-33E0-4CAC-8C83-3BD539462EF6}" }, "geometry": { "type": "Point", "coordinates": [ -76.666000154900615, 39.334511247306324, 0.0 ] } },
{ "type": "Feature", "properties": { "OBJECTID": 271, "CAM_NUMBER": "804", "CAM_LOCATION": "Reisterstown Rd and Grantley Ave", "GlobalID": "{016D88AD-1711-4E53-BE1E-3AC746F49F54}" }, "geometry": { "type": "Point", "coordinates": [ -76.666913864598598, 39.337511252567403, 0.0 ] } },
{ "type": "Feature", "properties": { "OBJECTID": 272, "CAM_NUMBER": "805", "CAM_LOCATION": "Boarman Ave and Willowdale Ave", "GlobalID": "{FA89659C-0091-4066-8E1A-1845C5CB81C0}" }, "geometry": { "type": "Point", "coordinates": [ -76.669483104146948, 39.337232841843949, 0.0 ] } },
{ "type": "Feature", "properties": { "OBJECTID": 273, "CAM_NUMBER": "806", "CAM_LOCATION": "Park Heights Ave and W Garrison Ave", "GlobalID": "{07652345-2B47-4C20-9836-D69D10B119F0}" }, "geometry": { "type": "Point", "coordinates": [ -76.673566470319443, 39.347402038742914, 0.0 ] } },
{ "type": "Feature", "properties": { "OBJECTID": 274, "CAM_NUMBER": "807", "CAM_LOCATION": "Reisterstown Rd and Laporte St", "GlobalID": "{6FBFB6FE-D4EB-47F1-B72C-3352ADA1388B}" }, "geometry": { "type": "Point", "coordinates": [ -76.668462138673007, 39.339409311827957, 0.0 ] } },
{ "type": "Feature", "properties": { "OBJECTID": 275, "CAM_NUMBER": "808", "CAM_LOCATION": "Reisterstown Rd and St Ambrose Ave", "GlobalID": "{2C124D6E-70EA-499D-A6E7-475A4C3909E6}" }, "geometry": { "type": "Point", "coordinates": [ -76.671471961746562, 39.340313296685089, 0.0 ] } },
{ "type": "Feature", "properties": { "OBJECTID": 276, "CAM_NUMBER": "809", "CAM_LOCATION": "W Belvedere Ave and Litchfield Ave", "GlobalID": "{17478DC9-F313-4916-B424-A2AE286D68A9}" }, "geometry": { "type": "Point", "coordinates": [ -76.680332980477459, 39.346305756960042, 0.0 ] } },
{ "type": "Feature", "properties": { "OBJECTID": 277, "CAM_NUMBER": "810", "CAM_LOCATION": "Park Heights Ave and Woodland", "GlobalID": "{C760644D-9818-4B21-BF4D-DE0E62638949}" }, "geometry": { "type": "Point", "coordinates": [ -76.671199913576544, 39.345209155100214, 0.0 ] } },
{ "type": "Feature", "properties": { "OBJECTID": 278, "CAM_NUMBER": "811", "CAM_LOCATION": "W Garrison Ave and Denmore Ave", "GlobalID": "{0EC16908-9138-4A17-8CD4-87FFD520C400}" }, "geometry": { "type": "Point", "coordinates": [ -76.674703042274899, 39.346662108086115, 0.0 ] } },
{ "type": "Feature", "properties": { "OBJECTID": 279, "CAM_NUMBER": "813", "CAM_LOCATION": "Pimlico Rd and Sumter Ave", "GlobalID": "{12F54029-8DEE-4526-A78E-7F860B0FA82A}" }, "geometry": { "type": "Point", "coordinates": [ -76.666735851145788, 39.342351835039601, 0.0 ] } },
{ "type": "Feature", "properties": { "OBJECTID": 280, "CAM_NUMBER": "814", "CAM_LOCATION": "Pimlico Rd and W Cold Spring Ln", "GlobalID": "{1A724634-C90D-4655-9D58-238E9443EB79}" }, "geometry": { "type": "Point", "coordinates": [ -76.665126803504734, 39.340248697535166, 0.0 ] } },
{ "type": "Feature", "properties": { "OBJECTID": 281, "CAM_NUMBER": "815", "CAM_LOCATION": "Quantico Ave and Pimlico Rd", "GlobalID": "{A59345C6-271F-433C-830C-B3A7A0FF23E3}" }, "geometry": { "type": "Point", "coordinates": [ -76.662966300138081, 39.337378415123766, 0.0 ] } },
{ "type": "Feature", "properties": { "OBJECTID": 282, "CAM_NUMBER": "816", "CAM_LOCATION": "Pimlico Rd and Loyola Northway", "GlobalID": "{9A32A649-375F-46C9-9AD6-84587B8A1271}" }, "geometry": { "type": "Point", "coordinates": [ -76.663572232813749, 39.338535252763918, 0.0 ] } },
{ "type": "Feature", "properties": { "OBJECTID": 283, "CAM_NUMBER": "817", "CAM_LOCATION": "Pimlico Rd and Rosewood Ave", "GlobalID": "{0687191D-8DC5-466D-B8C0-93237E56944F}" }, "geometry": { "type": "Point", "coordinates": [ -76.663966708194053, 39.339008966698103, 0.0 ] } },
{ "type": "Feature", "properties": { "OBJECTID": 284, "CAM_NUMBER": "818", "CAM_LOCATION": "Winner Ave and Avondale Ave", "GlobalID": "{733B05BA-3B34-4672-8960-3F8708D3C7F6}" }, "geometry": { "type": "Point", "coordinates": [ -76.677778748890191, 39.352936422796084, 0.0 ] } },
{ "type": "Feature", "properties": { "OBJECTID": 285, "CAM_NUMBER": "819", "CAM_LOCATION": "Park Heights Ave and Hayward Ave", "GlobalID": "{C0EF4E7E-598C-4A0B-A69F-97AF00C5A232}" }, "geometry": { "type": "Point", "coordinates": [ -76.67887373718105, 39.349967189212514, 0.0 ] } },
{ "type": "Feature", "properties": { "OBJECTID": 286, "CAM_NUMBER": "820", "CAM_LOCATION": "Park Heights Ave and Rogers", "GlobalID": "{2642272C-4077-4817-9DD7-5B4BB313F641}" }, "geometry": { "type": "Point", "coordinates": [ -76.683357952458408, 39.351872004317592, 0.0 ] } },
{ "type": "Feature", "properties": { "OBJECTID": 287, "CAM_NUMBER": "821", "CAM_LOCATION": "Park Heights Ave and Manhattan Ave", "GlobalID": "{4089D96C-FDCA-4E3B-8568-C7E423312838}" }, "geometry": { "type": "Point", "coordinates": [ -76.68522371434436, 39.352992014116346, 0.0 ] } },
{ "type": "Feature", "properties": { "OBJECTID": 288, "CAM_NUMBER": "822", "CAM_LOCATION": "Park Heights Ave and Glen Ave", "GlobalID": "{52F16854-88FE-4420-B2BA-115AD1A666A4}" }, "geometry": { "type": "Point", "coordinates": [ -76.687980139240892, 39.35573786048954, 0.0 ] } },
{ "type": "Feature", "properties": { "OBJECTID": 289, "CAM_NUMBER": "823", "CAM_LOCATION": "Park Heights Ave and Taney", "GlobalID": "{47525D49-FF91-4B19-AD5F-5F0E237DB4BF}" }, "geometry": { "type": "Point", "coordinates": [ -76.691236523390202, 39.357372106931734, 0.0 ] } },
{ "type": "Feature", "properties": { "OBJECTID": 290, "CAM_NUMBER": "836", "CAM_LOCATION": "Park Heights Ave and W Strathmore Ave", "GlobalID": "{4DF6D126-0898-46F3-9C9B-154EE2E0716B}" }, "geometry": { "type": "Point", "coordinates": [ -76.694324010468804, 39.358967708308661, 0.0 ] } },
{ "type": "Feature", "properties": { "OBJECTID": 291, "CAM_NUMBER": "825", "CAM_LOCATION": "Park Heights Ave and Fords Ln", "GlobalID": "{53C16F98-E630-4623-847B-45E5176ACCCC}" }, "geometry": { "type": "Point", "coordinates": [ -76.696658168451165, 39.360187425608345, 0.0 ] } },
{ "type": "Feature", "properties": { "OBJECTID": 292, "CAM_NUMBER": "826", "CAM_LOCATION": "Park Heights Ave and Clarks Ln", "GlobalID": "{FDB010EA-AE23-43AD-88F9-FA689DC2EB01}" }, "geometry": { "type": "Point", "coordinates": [ -76.699792369896912, 39.362268131569898, 0.0 ] } },
{ "type": "Feature", "properties": { "OBJECTID": 293, "CAM_NUMBER": "827", "CAM_LOCATION": "Park Heights Ave and Fallstaff Rd", "GlobalID": "{7709DA92-E23C-4F13-A60C-E892D1BAF920}" }, "geometry": { "type": "Point", "coordinates": [ -76.702821041865093, 39.364916678888115, 0.0 ] } },
{ "type": "Feature", "properties": { "OBJECTID": 294, "CAM_NUMBER": "828", "CAM_LOCATION": "Park Heights Ave and W Belvedere Ave", "GlobalID": "{6178D4EE-95E7-4162-AA5F-B94575C3BE21}" }, "geometry": { "type": "Point", "coordinates": [ -76.675827786388965, 39.348885673959145, 0.0 ] } },
{ "type": "Feature", "properties": { "OBJECTID": 295, "CAM_NUMBER": "829", "CAM_LOCATION": "Park Heights Ave and Virginia Ave", "GlobalID": "{6EB7A8B9-07F9-4B8C-B47F-68AEC0CD96B8}" }, "geometry": { "type": "Point", "coordinates": [ -76.670460816720933, 39.344157510393288, 0.0 ] } },
{ "type": "Feature", "properties": { "OBJECTID": 296, "CAM_NUMBER": "830", "CAM_LOCATION": "Park Heights Ave and Wylie Ave", "GlobalID": "{31FE711B-07F0-4B37-9590-76725D4726EC}" }, "geometry": { "type": "Point", "coordinates": [ -76.667556060554389, 39.341068538066239, 0.0 ] } },
{ "type": "Feature", "properties": { "OBJECTID": 297, "CAM_NUMBER": "831", "CAM_LOCATION": "Park Heights Ave and Oswego Ave", "GlobalID": "{21D8FE7B-7093-4681-9AB7-FD04E065984C}" }, "geometry": { "type": "Point", "coordinates": [ -76.663352996730865, 39.335669981104338, 0.0 ] } },
{ "type": "Feature", "properties": { "OBJECTID": 298, "CAM_NUMBER": "832", "CAM_LOCATION": "Park Heights Ave and Trainor Ave JCC", "GlobalID": "{C9FDE79C-CC4C-4D99-AC87-820A56922053}" }, "geometry": { "type": "Point", "coordinates": [ -76.686332332776658, 39.353847260404557, 0.0 ] } },
{ "type": "Feature", "properties": { "OBJECTID": 299, "CAM_NUMBER": "833", "CAM_LOCATION": "Park Heights Ave and Trainor Ave", "GlobalID": "{84E11968-A23F-4C3F-A8E0-C61759211CE8}" }, "geometry": { "type": "Point", "coordinates": [ -76.687157199849324, 39.354796188393088, 0.0 ] } },
{ "type": "Feature", "properties": { "OBJECTID": 300, "CAM_NUMBER": "834", "CAM_LOCATION": "Park Heights Ave and Menlo Dr", "GlobalID": "{06C8771C-E4BE-4EDC-8AE6-FD9C068C53C1}" }, "geometry": { "type": "Point", "coordinates": [ -76.689647933038628, 39.356470696375453, 0.0 ] } },
{ "type": "Feature", "properties": { "OBJECTID": 301, "CAM_NUMBER": "835", "CAM_LOCATION": "Park Heights Ave and Pinkney Rd", "GlobalID": "{26911D15-1B10-4FAB-A830-3FAF065AF559}" }, "geometry": { "type": "Point", "coordinates": [ -76.692614873232074, 39.35806105569884, 0.0 ] } },
{ "type": "Feature", "properties": { "OBJECTID": 302, "CAM_NUMBER": "824", "CAM_LOCATION": "Park Heights Ave and W Strathmore Ave", "GlobalID": "{1F89B6F0-997E-45E5-AB12-A4D0FE04EF32}" }, "geometry": { "type": "Point", "coordinates": [ -76.693945711505506, 39.358734183492246, 0.0 ] } },
{ "type": "Feature", "properties": { "OBJECTID": 303, "CAM_NUMBER": "837", "CAM_LOCATION": "Park Heights Ave and Bancroft Rd", "GlobalID": "{12CD018E-7F63-4147-9A9A-F18BF6826C7B}" }, "geometry": { "type": "Point", "coordinates": [ -76.697885265896034, 39.360887289656169, 0.0 ] } },
{ "type": "Feature", "properties": { "OBJECTID": 304, "CAM_NUMBER": "838", "CAM_LOCATION": "Park Heights Ave and N Bancroft Rd", "GlobalID": "{A80D171F-A214-4C01-890B-5023F876EE17}" }, "geometry": { "type": "Point", "coordinates": [ -76.69889679266214, 39.361707879484776, 0.0 ] } },
{ "type": "Feature", "properties": { "OBJECTID": 305, "CAM_NUMBER": "839", "CAM_LOCATION": "3500 Northern Pkwy E&T", "GlobalID": "{639EA28A-C7AD-4FBD-B9F2-3673311C6246}" }, "geometry": { "type": "Point", "coordinates": [ -76.682636113804961, 39.353976450855789, 0.0 ] } },
{ "type": "Feature", "properties": { "OBJECTID": 306, "CAM_NUMBER": "840", "CAM_LOCATION": "Park Heights Ave and Oakford Ave", "GlobalID": "{76738B27-BE4C-4307-8A6E-A8D87094F2DC}" }, "geometry": { "type": "Point", "coordinates": [ -76.666771842156848, 39.340341182735109, 0.0 ] } },
{ "type": "Feature", "properties": { "OBJECTID": 307, "CAM_NUMBER": "901", "CAM_LOCATION": "W North Ave and Bloomingdale Rd", "GlobalID": "{D3F5979A-2051-423C-8628-703A80D9D71A}" }, "geometry": { "type": "Point", "coordinates": [ -76.671060783558104, 39.308835537586837, 0.0 ] } },
{ "type": "Feature", "properties": { "OBJECTID": 308, "CAM_NUMBER": "902", "CAM_LOCATION": "W North Ave and N Rosedale St", "GlobalID": "{0FA9FA74-65F4-4191-81E0-6C1B7BDA6475}" }, "geometry": { "type": "Point", "coordinates": [ -76.669224560933273, 39.308950047301181, 0.0 ] } },
{ "type": "Feature", "properties": { "OBJECTID": 309, "CAM_NUMBER": "903", "CAM_LOCATION": "W North Ave and N Longwood St", "GlobalID": "{D072FCA2-E7A3-47A3-B6ED-BD4833E6BC6E}" }, "geometry": { "type": "Point", "coordinates": [ -76.667607967119963, 39.30900842306918, 0.0 ] } },
{ "type": "Feature", "properties": { "OBJECTID": 310, "CAM_NUMBER": "904", "CAM_LOCATION": "W North Ave and Poplar Grove St", "GlobalID": "{2DEC7570-0157-4C99-A45A-541A8A2DA542}" }, "geometry": { "type": "Point", "coordinates": [ -76.665847490918395, 39.309073973503942, 0.0 ] } },
{ "type": "Feature", "properties": { "OBJECTID": 311, "CAM_NUMBER": "905", "CAM_LOCATION": "W North Ave and N Dukeland St", "GlobalID": "{1A61B88B-3F99-44DE-BC28-B2225D527CB0}" }, "geometry": { "type": "Point", "coordinates": [ -76.663913461313555, 39.309268088248864, 0.0 ] } },
{ "type": "Feature", "properties": { "OBJECTID": 312, "CAM_NUMBER": "906", "CAM_LOCATION": "W North Ave and Braddish Ave", "GlobalID": "{136AE002-B150-4FA6-B5D1-743761CCCEB4}" }, "geometry": { "type": "Point", "coordinates": [ -76.66125157871177, 39.309369206366917, 0.0 ] } },
{ "type": "Feature", "properties": { "OBJECTID": 313, "CAM_NUMBER": "907", "CAM_LOCATION": "Westwood Ave Dead End", "GlobalID": "{D3D2E8A6-4482-4605-823F-DBC0AD3E7F5E}" }, "geometry": { "type": "Point", "coordinates": [ -76.665012328962575, 39.308210213475277, 0.0 ] } },
{ "type": "Feature", "properties": { "OBJECTID": 314, "CAM_NUMBER": "908", "CAM_LOCATION": "N Rosedale St and Grayson St", "GlobalID": "{8B13D786-2177-4CF1-93AE-E37E7FEB6CCA}" }, "geometry": { "type": "Point", "coordinates": [ -76.669063890674323, 39.30645851750721, 0.0 ] } },
{ "type": "Feature", "properties": { "OBJECTID": 315, "CAM_NUMBER": "909", "CAM_LOCATION": "Poplar Grove St and Presbury St", "GlobalID": "{882F51FD-A3E3-4318-8301-ABC94A0B473D}" }, "geometry": { "type": "Point", "coordinates": [ -76.665602154646564, 39.307176174718442, 0.0 ] } },
{ "type": "Feature", "properties": { "OBJECTID": 316, "CAM_NUMBER": "910", "CAM_LOCATION": "Baker St and N Dukeland St", "GlobalID": "{6F89BEC9-3255-4362-9287-37A6378E3B81}" }, "geometry": { "type": "Point", "coordinates": [ -76.663922358704909, 39.306056627493334, 0.0 ] } },
{ "type": "Feature", "properties": { "OBJECTID": 317, "CAM_NUMBER": "911", "CAM_LOCATION": "Longwood/Brigton", "GlobalID": "{B5A74119-DEDE-4032-B9C3-A1B4393D4B71}" }, "geometry": { "type": "Point", "coordinates": [ -76.667271247341148, 39.30526754958121, 0.0 ] } },
{ "type": "Feature", "properties": { "OBJECTID": 318, "CAM_NUMBER": "912", "CAM_LOCATION": "Poplar Grove St and Pressman St", "GlobalID": "{F96197AE-3409-450A-9A5E-9C3BEE2C19A5}" }, "geometry": { "type": "Point", "coordinates": [ -76.665541549133863, 39.304647818355321, 0.0 ] } },
{ "type": "Feature", "properties": { "OBJECTID": 319, "CAM_NUMBER": "913", "CAM_LOCATION": "Bloomingdale Rd and Belmont Ave", "GlobalID": "{1B2AC74B-5BD8-4AE1-A09C-12EDA29606BB}" }, "geometry": { "type": "Point", "coordinates": [ -76.666193447519461, 39.30351956852693, 0.0 ] } },
{ "type": "Feature", "properties": { "OBJECTID": 320, "CAM_NUMBER": "914", "CAM_LOCATION": "N Rosedale St and Normount Ct", "GlobalID": "{E1D92CB2-ABF0-4098-9A3C-9C23CE4DFACB}" }, "geometry": { "type": "Point", "coordinates": [ -76.66903067009541, 39.302554757075207, 0.0 ] } },
{ "type": "Feature", "properties": { "OBJECTID": 321, "CAM_NUMBER": "915", "CAM_LOCATION": "Winchester St and N Longwood St", "GlobalID": "{6801C4D9-FC37-4820-AF59-40DF5E230534}" }, "geometry": { "type": "Point", "coordinates": [ -76.667329967176741, 39.301289932272667, 0.0 ] } },
{ "type": "Feature", "properties": { "OBJECTID": 322, "CAM_NUMBER": "916", "CAM_LOCATION": "Bloomingdale Rd and Ellicott Driveway", "GlobalID": "{50B7D2A0-FD94-479A-9A27-05112DC3CC48}" }, "geometry": { "type": "Point", "coordinates": [ -76.665398618420198, 39.302153305666316, 0.0 ] } },
{ "type": "Feature", "properties": { "OBJECTID": 323, "CAM_NUMBER": "917", "CAM_LOCATION": "Ellicott Driveway and N Dukeland St", "GlobalID": "{2FEC8589-F5F4-43E7-9BE0-B90FFB7BE4F8}" }, "geometry": { "type": "Point", "coordinates": [ -76.663567410581422, 39.302478382572964, 0.0 ] } },
{ "type": "Feature", "properties": { "OBJECTID": 324, "CAM_NUMBER": "918", "CAM_LOCATION": "Poplar Grove St and Riggs Ave", "GlobalID": "{F8651BA9-893B-485F-A400-7126EDC2EECB}" }, "geometry": { "type": "Point", "coordinates": [ -76.665189811259324, 39.300210131321982, 0.0 ] } },
{ "type": "Feature", "properties": { "OBJECTID": 325, "CAM_NUMBER": "919", "CAM_LOCATION": "Mosher St and N Dukeland St", "GlobalID": "{99360F82-D635-4809-A8F9-A96F17AA0BD5}" }, "geometry": { "type": "Point", "coordinates": [ -76.663432245870837, 39.299230872315746, 0.0 ] } },
{ "type": "Feature", "properties": { "OBJECTID": 326, "CAM_NUMBER": "920", "CAM_LOCATION": "Poplar Grove St and W Lafayette Ave", "GlobalID": "{BD60CC1E-88C6-4583-8560-8481E5B8D924}" }, "geometry": { "type": "Point", "coordinates": [ -76.665153416695233, 39.29799795062921, 0.0 ] } },
{ "type": "Feature", "properties": { "OBJECTID": 327, "CAM_NUMBER": "921", "CAM_LOCATION": "N Franklintown Rd and N Longwood St", "GlobalID": "{82BFFAD7-EA89-4D6A-86B1-1B3899FF0255}" }, "geometry": { "type": "Point", "coordinates": [ -76.666854834484454, 39.297095875396678, 0.0 ] } },
{ "type": "Feature", "properties": { "OBJECTID": 328, "CAM_NUMBER": "922", "CAM_LOCATION": "Poplar Grove St and Rayner Ave", "GlobalID": "{D5C49F0B-F189-4CDF-927A-D11DC3F88371}" }, "geometry": { "type": "Point", "coordinates": [ -76.665060879708179, 39.296212826470168, 0.0 ] } },
{ "type": "Feature", "properties": { "OBJECTID": 329, "CAM_NUMBER": "923", "CAM_LOCATION": "Poplar Grove St and Edmondson Ave", "GlobalID": "{6613B0E9-51F5-4787-9035-1AE37DC0DAF1}" }, "geometry": { "type": "Point", "coordinates": [ -76.664798790728341, 39.29448920052922, 0.0 ] } },
{ "type": "Feature", "properties": { "OBJECTID": 330, "CAM_NUMBER": "924", "CAM_LOCATION": "Edmondson Ave and Braddish Ave", "GlobalID": "{BEEFD8A5-F257-42F6-9910-3C81F6638008}" }, "geometry": { "type": "Point", "coordinates": [ -76.65928441101596, 39.294688228746331, 0.0 ] } },
{ "type": "Feature", "properties": { "OBJECTID": 331, "CAM_NUMBER": "925", "CAM_LOCATION": "Edmondson Ave and N Warwick Ave", "GlobalID": "{F34327E4-F940-490E-8430-F17C0FAB4B01}" }, "geometry": { "type": "Point", "coordinates": [ -76.656215497390818, 39.294797149080097, 0.0 ] } },
{ "type": "Feature", "properties": { "OBJECTID": 332, "CAM_NUMBER": "926", "CAM_LOCATION": "Edmondson Ave and Denison St", "GlobalID": "{B92C1B50-1FBD-4776-B91F-D606EE5825F7}" }, "geometry": { "type": "Point", "coordinates": [ -76.674075986827162, 39.29416012239885, 0.0 ] } },
{ "type": "Feature", "properties": { "OBJECTID": 333, "CAM_NUMBER": "927", "CAM_LOCATION": "Edmondson Ave and Swan Ave", "GlobalID": "{810616C7-D65F-4E88-9B1D-61469A313842}" }, "geometry": { "type": "Point", "coordinates": [ -76.6936107062308, 39.29324618705332, 0.0 ] } },
{ "type": "Feature", "properties": { "OBJECTID": 334, "CAM_NUMBER": "928", "CAM_LOCATION": "Edmondson Ave and N Loudon Ave", "GlobalID": "{3DE3867E-1642-4F64-A0F5-61BB5B198F73}" }, "geometry": { "type": "Point", "coordinates": [ -76.682679405160641, 39.293684168442425, 0.0 ] } },
{ "type": "Feature", "properties": { "OBJECTID": 335, "CAM_NUMBER": "929", "CAM_LOCATION": "Edmondson Ave and Allendale St", "GlobalID": "{3DE292C4-105E-4FE1-A26F-A0F3F2D5BD75}" }, "geometry": { "type": "Point", "coordinates": [ -76.678278123065965, 39.294007032938651, 0.0 ] } },
{ "type": "Feature", "properties": { "OBJECTID": 336, "CAM_NUMBER": "930", "CAM_LOCATION": "N Rosedale St and Brighton St", "GlobalID": "{DCCEAF6C-9B5E-4873-A467-4358146DB5E8}" }, "geometry": { "type": "Point", "coordinates": [ -76.669041562228088, 39.305114882093363, 0.0 ] } },
{ "type": "Feature", "properties": { "OBJECTID": 337, "CAM_NUMBER": "931", "CAM_LOCATION": "Riggs Ave and Dukeland St", "GlobalID": "{F573D532-17F9-41B2-9E15-82EDEA5C50AC}" }, "geometry": { "type": "Point", "coordinates": [ -76.66341552946885, 39.300356426728598, 0.0 ] } },
{ "type": "Feature", "properties": { "OBJECTID": 338, "CAM_NUMBER": "932", "CAM_LOCATION": "Riggs Ave and Braddish Ave", "GlobalID": "{7118A4FA-62A9-46E8-B8D6-3B982BDA1A17}" }, "geometry": { "type": "Point", "coordinates": [ -76.660754155770576, 39.300423578566097, 0.0 ] } },
{ "type": "Feature", "properties": { "OBJECTID": 339, "CAM_NUMBER": "1001", "CAM_LOCATION": "W Pratt St and S Stricker St", "GlobalID": "{3475EF5A-0EE5-46B6-B365-6476A35BBF0B}" }, "geometry": { "type": "Point", "coordinates": [ -76.640860117507088, 39.285402656147888, 0.0 ] } },
{ "type": "Feature", "properties": { "OBJECTID": 340, "CAM_NUMBER": "1002", "CAM_LOCATION": "McHenry St and Stricker St", "GlobalID": "{F9D26B62-C12B-4F37-9A1C-14F49B5AED72}" }, "geometry": { "type": "Point", "coordinates": [ -76.640649987862602, 39.284499545163918, 0.0 ] } },
{ "type": "Feature", "properties": { "OBJECTID": 341, "CAM_NUMBER": "1003", "CAM_LOCATION": "S Stricker St and Ramsay St", "GlobalID": "{76A07D18-2B22-482B-A615-E8C4A280DD92}" }, "geometry": { "type": "Point", "coordinates": [ -76.640718892080372, 39.283285032247186, 0.0 ] } },
{ "type": "Feature", "properties": { "OBJECTID": 342, "CAM_NUMBER": "1004", "CAM_LOCATION": "S Parrish St and McHenry St", "GlobalID": "{2A0E0814-A4EC-4C79-86C6-FEB2E99A6D91}" }, "geometry": { "type": "Point", "coordinates": [ -76.641489454623098, 39.284388987282206, 0.0 ] } },
{ "type": "Feature", "properties": { "OBJECTID": 343, "CAM_NUMBER": "1005", "CAM_LOCATION": "S Parrish St and Ramsay St", "GlobalID": "{058D3724-A542-451E-89D8-F50919A5A809}" }, "geometry": { "type": "Point", "coordinates": [ -76.641390684525064, 39.283286657210105, 0.0 ] } },
{ "type": "Feature", "properties": { "OBJECTID": 344, "CAM_NUMBER": "1006", "CAM_LOCATION": "McHenry St and S Gilmor St", "GlobalID": "{4DCB9B1D-7A71-4C4F-B335-3E73C63B8CE0}" }, "geometry": { "type": "Point", "coordinates": [ -76.642070248761797, 39.284452980266693, 0.0 ] } },
{ "type": "Feature", "properties": { "OBJECTID": 345, "CAM_NUMBER": "1007", "CAM_LOCATION": "S Gilmor St and Ramsay St", "GlobalID": "{0C1076B8-C94A-4B20-A9E8-2C0EFB13A360}" }, "geometry": { "type": "Point", "coordinates": [ -76.642134047100782, 39.283241727086676, 0.0 ] } },
{ "type": "Feature", "properties": { "OBJECTID": 346, "CAM_NUMBER": "1008", "CAM_LOCATION": "W Pratt St and S Mount St", "GlobalID": "{A22D3981-E4EB-4CA0-A3D8-989FF028D960}" }, "geometry": { "type": "Point", "coordinates": [ -76.643649209889901, 39.285353321334313, 0.0 ] } },
{ "type": "Feature", "properties": { "OBJECTID": 347, "CAM_NUMBER": "1009", "CAM_LOCATION": "McHenry St and S Mount St", "GlobalID": "{2D54ADBB-B9D1-436A-830B-1B03AC8EEA11}" }, "geometry": { "type": "Point", "coordinates": [ -76.643483715033071, 39.284404900333669, 0.0 ] } },
{ "type": "Feature", "properties": { "OBJECTID": 348, "CAM_NUMBER": "1010", "CAM_LOCATION": "S Mount St and Ramsay St", "GlobalID": "{B09F63F8-E001-4E34-8950-0EF3BA1D56AA}" }, "geometry": { "type": "Point", "coordinates": [ -76.643430714600228, 39.283217826880282, 0.0 ] } },
{ "type": "Feature", "properties": { "OBJECTID": 349, "CAM_NUMBER": "1011", "CAM_LOCATION": "W Pratt St and S Fulton Ave", "GlobalID": "{28DB9FCD-27EF-4214-BA57-9996D48B416A}" }, "geometry": { "type": "Point", "coordinates": [ -76.644953749730391, 39.285202724454003, 0.0 ] } },
{ "type": "Feature", "properties": { "OBJECTID": 350, "CAM_NUMBER": "1012", "CAM_LOCATION": "S Fulton St and McHenry St", "GlobalID": "{CA1A884F-B554-4B01-AD93-7B3119321C69}" }, "geometry": { "type": "Point", "coordinates": [ -76.644886660783868, 39.28435124813042, 0.0 ] } },
{ "type": "Feature", "properties": { "OBJECTID": 351, "CAM_NUMBER": "1013", "CAM_LOCATION": "Wilhelm St and S Fulton Ave", "GlobalID": "{8DE4D429-FE94-4A2F-926F-EA2A998B9487}" }, "geometry": { "type": "Point", "coordinates": [ -76.644896519014765, 39.283756993020162, 0.0 ] } },
{ "type": "Feature", "properties": { "OBJECTID": 352, "CAM_NUMBER": "1014", "CAM_LOCATION": "Ramsay St and S Fulton Ave", "GlobalID": "{43AF895F-1159-4E5A-8452-5CBD8DB90C2D}" }, "geometry": { "type": "Point", "coordinates": [ -76.644844638246411, 39.283148745192847, 0.0 ] } },
{ "type": "Feature", "properties": { "OBJECTID": 353, "CAM_NUMBER": "1015", "CAM_LOCATION": "McHenry St and S Addison St", "GlobalID": "{4233AD69-485C-4CE6-BB1B-657D29D5BC7E}" }, "geometry": { "type": "Point", "coordinates": [ -76.645820244992763, 39.284321472696284, 0.0 ] } },
{ "type": "Feature", "properties": { "OBJECTID": 354, "CAM_NUMBER": "1016", "CAM_LOCATION": "W Pratt St and S Monroe St", "GlobalID": "{179A67E0-4D21-46F9-A4D9-240D268F5BB0}" }, "geometry": { "type": "Point", "coordinates": [ -76.646689364352042, 39.285128604994753, 0.0 ] } },
{ "type": "Feature", "properties": { "OBJECTID": 355, "CAM_NUMBER": "1017", "CAM_LOCATION": "S Monroe St and Wilhelm St", "GlobalID": "{41CDEF93-492E-4DC3-9A4B-FE4F93E72EA1}" }, "geometry": { "type": "Point", "coordinates": [ -76.646723279857554, 39.28364462220275, 0.0 ] } },
{ "type": "Feature", "properties": { "OBJECTID": 356, "CAM_NUMBER": "1018", "CAM_LOCATION": "S Monroe St and Ramsay St", "GlobalID": "{7DA32F1F-8F3C-458B-87F3-BEC0E7AA2525}" }, "geometry": { "type": "Point", "coordinates": [ -76.646565482422886, 39.283097728960186, 0.0 ] } },
{ "type": "Feature", "properties": { "OBJECTID": 357, "CAM_NUMBER": "1019", "CAM_LOCATION": "S Payson St and McHenry St", "GlobalID": "{5BD140CD-ADAF-47BE-955F-1AD630F82D0C}" }, "geometry": { "type": "Point", "coordinates": [ -76.648480935964173, 39.284246716530831, 0.0 ] } },
{ "type": "Feature", "properties": { "OBJECTID": 358, "CAM_NUMBER": "1020", "CAM_LOCATION": "S Payson St and Ramsay St", "GlobalID": "{CC842470-DCC7-4ECC-9363-30DC7F97EE54}" }, "geometry": { "type": "Point", "coordinates": [ -76.648430457004352, 39.283130163723328, 0.0 ] } },
{ "type": "Feature", "properties": { "OBJECTID": 359, "CAM_NUMBER": "1021", "CAM_LOCATION": "S Payson St and Ashton St", "GlobalID": "{7B50060E-D6B8-4DDC-9DE8-D92966B9488D}" }, "geometry": { "type": "Point", "coordinates": [ -76.648324007521595, 39.282797140983021, 0.0 ] } },
{ "type": "Feature", "properties": { "OBJECTID": 360, "CAM_NUMBER": "1022", "CAM_LOCATION": "S Pulaski St and McHenry", "GlobalID": "{1E2DA231-B406-4680-9831-FDBFF30A4672}" }, "geometry": { "type": "Point", "coordinates": [ -76.649892648186523, 39.284187056948419, 0.0 ] } },
{ "type": "Feature", "properties": { "OBJECTID": 361, "CAM_NUMBER": "1023", "CAM_LOCATION": "S Pulaski St and Wilhelm St", "GlobalID": "{2CB9A4B5-2D96-4581-8414-63E97A19739B}" }, "geometry": { "type": "Point", "coordinates": [ -76.649758931887064, 39.283563037547601, 0.0 ] } },